[
  { "id": "KABR", "name": "Aberdeen, SD", "lat": 45.4558, "lon": -98.4133 },
  { "id": "KABX", "name": "Albuquerque, NM", "lat": 35.1497, "lon": -106.8239 },
  { "id": "KAKQ", "name": "Wakefield, VA", "lat": 36.9841, "lon": -77.0074 },
  { "id": "KAMA", "name": "Amarillo, TX", "lat": 35.2333, "lon": -101.7093 },
  { "id": "KAMX", "name": "Miami, FL", "lat": 25.6111, "lon": -80.4127 },
  { "id": "KAPX", "name": "Gaylord, MI", "lat": 44.9064, "lon": -84.7195 },
  { "id": "KARX", "name": "La Crosse, WI", "lat": 43.8228, "lon": -91.1911 },
  { "id": "KATX", "name": "Seattle, WA", "lat": 48.1947, "lon": -122.4957 },
  { "id": "KBBX", "name": "Beale AFB, CA", "lat": 39.4961, "lon": -121.6317 },
  { "id": "KBGM", "name": "Binghamton, NY", "lat": 42.1997, "lon": -75.9847 },
  { "id": "KBHX", "name": "Eureka, CA", "lat": 40.4992, "lon": -124.2917 },
  { "id": "KBIS", "name": "Bismarck, ND", "lat": 46.7825, "lon": -100.7597 },
  { "id": "KBLX", "name": "Billings, MT", "lat": 45.8539, "lon": -108.6067 },
  { "id": "KBMX", "name": "Birmingham, AL", "lat": 33.1722, "lon": -86.7697 },
  { "id": "KBOX", "name": "Boston, MA", "lat": 41.9497, "lon": -71.1370 },
  { "id": "KBRO", "name": "Brownsville, TX", "lat": 25.9161, "lon": -97.4189 },
  { "id": "KBUF", "name": "Buffalo, NY", "lat": 42.9489, "lon": -78.7369 },
  { "id": "KBYX", "name": "Key West, FL", "lat": 24.5975, "lon": -81.7031 },
  { "id": "KCAE", "name": "Columbia, SC", "lat": 33.9486, "lon": -81.1186 },
  { "id": "KCBW", "name": "Houlton, ME", "lat": 46.0392, "lon": -67.8067 },
  { "id": "KCBX", "name": "Boise, ID", "lat": 43.4906, "lon": -116.2358 },
  { "id": "KCCX", "name": "State College, PA", "lat": 40.9228, "lon": -77.0119 },
  { "id": "KCLE", "name": "Cleveland, OH", "lat": 41.4131, "lon": -81.8600 },
  { "id": "KCLX", "name": "Charleston, SC", "lat": 32.6556, "lon": -81.0422 },
  { "id": "KCRP", "name": "Corpus Christi, TX", "lat": 27.7842, "lon": -97.5111 },
  { "id": "KCXX", "name": "Burlington, VT", "lat": 44.5108, "lon": -73.1664 },
  { "id": "KCYS", "name": "Cheyenne, WY", "lat": 41.1519, "lon": -104.8061 },
  { "id": "KDAX", "name": "Sacramento, CA", "lat": 38.5011, "lon": -121.6778 },
  { "id": "KDDC", "name": "Dodge City, KS", "lat": 37.7608, "lon": -99.9689 },
  { "id": "KDFX", "name": "Laughlin AFB, TX", "lat": 29.2728, "lon": -100.2803 },
  { "id": "KDGX", "name": "Jackson, MS", "lat": 32.3178, "lon": -90.0775 },
  { "id": "KDIX", "name": "Philadelphia, PA", "lat": 39.9469, "lon": -74.4111 },
  { "id": "KDLH", "name": "Duluth, MN", "lat": 46.8369, "lon": -92.2097 },
  { "id": "KDMX", "name": "Des Moines, IA", "lat": 41.7311, "lon": -93.7228 },
  { "id": "KDOX", "name": "Dover AFB, DE", "lat": 38.8256, "lon": -75.4400 },
  { "id": "KDTX", "name": "Detroit, MI", "lat": 42.6997, "lon": -83.4717 },
  { "id": "KDVN", "name": "Davenport, IA", "lat": 41.6117, "lon": -90.5808 },
  { "id": "KDYX", "name": "Dyess AFB, TX", "lat": 32.5383, "lon": -99.2542 },
  { "id": "KEAX", "name": "Kansas City, MO", "lat": 38.8103, "lon": -94.2644 },
  { "id": "KEMX", "name": "Tucson, AZ", "lat": 31.8936, "lon": -110.6303 },
  { "id": "KENX", "name": "Albany, NY", "lat": 42.5864, "lon": -74.0639 },
  { "id": "KEOX", "name": "Fort Rucker, AL", "lat": 31.4606, "lon": -85.4594 },
  { "id": "KEPZ", "name": "El Paso, TX", "lat": 31.8731, "lon": -106.6969 },
  { "id": "KESX", "name": "Las Vegas, NV", "lat": 35.7011, "lon": -114.8911 },
  { "id": "KEWX", "name": "Austin/San Antonio, TX", "lat": 29.7039, "lon": -98.0286 },
  { "id": "KEYX", "name": "Edwards AFB, CA", "lat": 35.0978, "lon": -117.5606 },
  { "id": "KFCX", "name": "Roanoke, VA", "lat": 37.0244, "lon": -80.2743 },
  { "id": "KFDR", "name": "Altus AFB, OK", "lat": 34.3622, "lon": -98.9764 },
  { "id": "KFDX", "name": "Cannon AFB, NM", "lat": 34.6333, "lon": -103.3189 },
  { "id": "KFFC", "name": "Atlanta, GA", "lat": 33.3633, "lon": -84.5658 },
  { "id": "KFSD", "name": "Sioux Falls, SD", "lat": 43.5878, "lon": -96.7289 },
  { "id": "KFSX", "name": "Flagstaff, AZ", "lat": 34.5744, "lon": -111.1983 },
  { "id": "KFTG", "name": "Denver, CO", "lat": 39.7867, "lon": -104.5458 },
  { "id": "KFWS", "name": "Fort Worth, TX", "lat": 32.5731, "lon": -97.3031 },
  { "id": "KGGW", "name": "Glasgow, MT", "lat": 48.2064, "lon": -106.6247 },
  { "id": "KGJX", "name": "Grand Junction, CO", "lat": 39.0622, "lon": -108.2139 },
  { "id": "KGLD", "name": "Goodland, KS", "lat": 39.3669, "lon": -101.6933 },
  { "id": "KGRB", "name": "Green Bay, WI", "lat": 44.4986, "lon": -88.1111 },
  { "id": "KGRK", "name": "Fort Hood, TX", "lat": 30.7219, "lon": -97.3831 },
  { "id": "KGRR", "name": "Grand Rapids, MI", "lat": 42.8939, "lon": -85.5447 },
  { "id": "KGSP", "name": "Greer, SC", "lat": 34.8831, "lon": -82.2203 },
  { "id": "KGWX", "name": "Columbus AFB, MS", "lat": 33.8969, "lon": -88.3292 },
  { "id": "KGYX", "name": "Portland, ME", "lat": 43.8914, "lon": -70.2564 },
  { "id": "KHDX", "name": "Holloman AFB, NM", "lat": 33.0764, "lon": -106.1200 },
  { "id": "KHGX", "name": "Houston, TX", "lat": 29.4719, "lon": -95.0787 },
  { "id": "KHNX", "name": "Hanford, CA", "lat": 36.3142, "lon": -119.6317 },
  { "id": "KHPX", "name": "Fort Campbell, KY", "lat": 36.7367, "lon": -87.2858 },
  { "id": "KHTX", "name": "Huntsville, AL", "lat": 34.9306, "lon": -86.0833 },
  { "id": "KICT", "name": "Wichita, KS", "lat": 37.6547, "lon": -97.4428 },
  { "id": "KICX", "name": "Cedar City, UT", "lat": 37.5911, "lon": -112.8622 },
  { "id": "KILN", "name": "Cincinnati, OH", "lat": 39.4203, "lon": -83.8219 },
  { "id": "KILX", "name": "Lincoln, IL", "lat": 40.1506, "lon": -89.3369 },
  { "id": "KIND", "name": "Indianapolis, IN", "lat": 39.7075, "lon": -86.2803 },
  { "id": "KINX", "name": "Tulsa, OK", "lat": 36.1750, "lon": -95.5642 },
  { "id": "KIWX", "name": "North Webster, IN", "lat": 41.3589, "lon": -85.7000 },
  { "id": "KJAX", "name": "Jacksonville, FL", "lat": 30.4847, "lon": -81.7019 },
  { "id": "KJKL", "name": "Jackson, KY", "lat": 37.5908, "lon": -83.3131 },
  { "id": "KLBB", "name": "Lubbock, TX", "lat": 33.6542, "lon": -101.8139 },
  { "id": "KLCH", "name": "Lake Charles, LA", "lat": 30.1253, "lon": -93.2158 },
  { "id": "KLNX", "name": "North Platte, NE", "lat": 41.9579, "lon": -100.5762 },
  { "id": "KLOT", "name": "Chicago, IL", "lat": 41.6044, "lon": -88.0847 },
  { "id": "KLRX", "name": "Elko, NV", "lat": 40.7397, "lon": -116.8028 },
  { "id": "KLSX", "name": "St. Louis, MO", "lat": 38.6986, "lon": -90.6828 },
  { "id": "KLTX", "name": "Wilmington, NC", "lat": 33.9892, "lon": -78.4292 },
  { "id": "KLVX", "name": "Louisville, KY", "lat": 37.9753, "lon": -85.9439 },
  { "id": "KLWX", "name": "Sterling, VA", "lat": 38.9753, "lon": -77.4875 },
  { "id": "KLZK", "name": "Little Rock, AR", "lat": 34.8364, "lon": -92.2622 },
  { "id": "KMBX", "name": "Minot AFB, ND", "lat": 48.3925, "lon": -100.8644 },
  { "id": "KMHX", "name": "Morehead City, NC", "lat": 34.7758, "lon": -76.8764 },
  { "id": "KMKX", "name": "Milwaukee, WI", "lat": 42.9678, "lon": -88.5506 },
  { "id": "KMLB", "name": "Melbourne, FL", "lat": 28.1133, "lon": -80.6542 },
  { "id": "KMOB", "name": "Mobile, AL", "lat": 30.6794, "lon": -88.2397 },
  { "id": "KMPX", "name": "Minneapolis, MN", "lat": 44.8489, "lon": -93.5655 },
  { "id": "KMQT", "name": "Marquette, MI", "lat": 46.5311, "lon": -87.5483 },
  { "id": "KMRX", "name": "Knoxville, TN", "lat": 36.1683, "lon": -83.4019 },
  { "id": "KMSX", "name": "Missoula, MT", "lat": 47.0411, "lon": -113.9861 },
  { "id": "KMTX", "name": "Salt Lake City, UT", "lat": 41.2628, "lon": -112.4475 },
  { "id": "KMUX", "name": "San Francisco, CA", "lat": 37.1550, "lon": -121.8981 },
  { "id": "KMVX", "name": "Grand Forks, ND", "lat": 47.5281, "lon": -97.3250 },
  { "id": "KMXX", "name": "Maxwell AFB, AL", "lat": 32.5367, "lon": -85.7897 },
  { "id": "KNKX", "name": "San Diego, CA", "lat": 32.9189, "lon": -117.0417 },
  { "id": "KNQA", "name": "Memphis, TN", "lat": 35.3447, "lon": -89.8733 },
  { "id": "KOAX", "name": "Omaha, NE", "lat": 41.3203, "lon": -96.3667 },
  { "id": "KOKX", "name": "New York City, NY", "lat": 40.8656, "lon": -72.8639 },
  { "id": "KOTX", "name": "Spokane, WA", "lat": 47.6806, "lon": -117.6256 },
  { "id": "KPAH", "name": "Paducah, KY", "lat": 37.0683, "lon": -88.7719 },
  { "id": "KPBZ", "name": "Pittsburgh, PA", "lat": 40.5317, "lon": -80.2183 },
  { "id": "KPDT", "name": "Pendleton, OR", "lat": 45.6906, "lon": -118.8528 },
  { "id": "KPOE", "name": "Fort Polk, LA", "lat": 31.1553, "lon": -92.9761 },
  { "id": "KPUX", "name": "Pueblo, CO", "lat": 38.4594, "lon": -104.1814 },
  { "id": "KRAX", "name": "Raleigh/Durham, NC", "lat": 35.6653, "lon": -78.4900 },
  { "id": "KRGX", "name": "Reno, NV", "lat": 39.7539, "lon": -119.4617 },
  { "id": "KRIW", "name": "Riverton, WY", "lat": 43.0661, "lon": -108.4773 },
  { "id": "KRLX", "name": "Charleston, WV", "lat": 38.3111, "lon": -81.7231 },
  { "id": "KRTX", "name": "Portland, OR", "lat": 45.7150, "lon": -122.9650 },
  { "id": "KSGF", "name": "Springfield, MO", "lat": 37.2352, "lon": -93.4004 },
  { "id": "KSHV", "name": "Shreveport, LA", "lat": 32.4508, "lon": -93.8414 },
  { "id": "KSRX", "name": "Fort Smith, AR", "lat": 35.2903, "lon": -94.3617 },
  { "id": "KTBW", "name": "Tampa Bay, FL", "lat": 27.7053, "lon": -82.4017 },
  { "id": "KTLH", "name": "Tallahassee, FL", "lat": 30.3975, "lon": -84.3289 },
  { "id": "KTWX", "name": "Topeka, KS", "lat": 38.9969, "lon": -96.2325 },
  { "id": "KUDX", "name": "Rapid City, SD", "lat": 44.1250, "lon": -102.8294 },
  { "id": "KUEX", "name": "Hastings, NE", "lat": 40.3208, "lon": -98.4417 },
  { "id": "KVAX", "name": "Moody AFB, GA", "lat": 30.8903, "lon": -83.1931 },
  { "id": "KVBX", "name": "Vandenberg AFB, CA", "lat": 34.8383, "lon": -120.3978 },
  { "id": "KVNX", "name": "Vance AFB, OK", "lat": 36.7408, "lon": -98.1275 },
  { "id": "KVTX", "name": "Los Angeles, CA", "lat": 34.4117, "lon": -119.1786 },
  { "id": "KVWX", "name": "Evansville, IN", "lat": 38.2600, "lon": -87.7247 },
  { "id": "KYUX", "name": "Yuma, AZ", "lat": 32.4953, "lon": -114.6567 },
  { "id": "PABC", "name": "Bethel, AK", "lat": 60.7917, "lon": -161.8764 },
  { "id": "PACG", "name": "Biorka Island, AK", "lat": 56.8522, "lon": -135.4514 },
  { "id": "PAEC", "name": "Nome, AK", "lat": 64.5114, "lon": -165.2950 },
  { "id": "PAHG", "name": "Kenai, AK", "lat": 60.6150, "lon": -151.3511 },
  { "id": "PAIH", "name": "Middleton Island, AK", "lat": 59.4614, "lon": -146.3028 },
  { "id": "PAKC", "name": "King Salmon, AK", "lat": 58.6794, "lon": -156.6294 },
  { "id": "PAPD", "name": "Fairbanks, AK", "lat": 65.0350, "lon": -147.5014 },
  { "id": "PGUA", "name": "Andersen AFB, GU", "lat": 13.4547, "lon": 144.8111 },
  { "id": "PHKI", "name": "South Kauai, HI", "lat": 21.8942, "lon": -159.5522 },
  { "id": "PHKM", "name": "Kamuela, HI", "lat": 20.1253, "lon": -155.7781 },
  { "id": "PHMO", "name": "Molokai, HI", "lat": 21.1328, "lon": -157.1800 },
  { "id": "PHWA", "name": "South Shore, HI", "lat": 19.0950, "lon": -155.5689 },
  { "id": "RKJK", "name": "Kunsan AB, KR", "lat": 35.9242, "lon": 126.6222 },
  { "id": "RKSG", "name": "Camp Humphreys, KR", "lat": 36.9606, "lon": 127.0206 },
  { "id": "RODN", "name": "Kadena AB, JP", "lat": 26.3078, "lon": 127.7667 },
  { "id": "TJUA", "name": "San Juan, PR", "lat": 18.1156, "lon": -66.0781 }
]