[
  {
    "id": "KNXP",
    "name": "TWENTY NINE PALMS",
    "state": "CA",
    "latitude": 34.294,
    "longitude": -116.147
  },
  {
    "id": "PATO",
    "name": "PORTAGE GLACIER",
    "state": "AK",
    "latitude": 60.784,
    "longitude": -148.848
  },
  {
    "id": "PASK",
    "name": "SELAWIK",
    "state": "AK",
    "latitude": 66.6,
    "longitude": -159.986
  },
  {
    "id": "PABR",
    "name": "W POST-WILL ROGERS MEMORIAL AIRPORT",
    "state": "AK",
    "latitude": 71.287,
    "longitude": -156.739
  },
  {
    "id": "PABL",
    "name": "BUCKLAND AIRPORT",
    "state": "AK",
    "latitude": 65.983,
    "longitude": -161.133
  },
  {
    "id": "PAKU",
    "name": "UGNU-KUPRAUK AIRPORT",
    "state": "AK",
    "latitude": 70.331,
    "longitude": -149.598
  },
  {
    "id": "PAGB",
    "name": "GALBRAITH LAKE AIRPORT",
    "state": "AK",
    "latitude": 68.479,
    "longitude": -149.49
  },
  {
    "id": "PASC",
    "name": "DEADHORSE AIRPORT",
    "state": "AK",
    "latitude": 70.191,
    "longitude": -148.48
  },
  {
    "id": "PAKF",
    "name": "FALSE PASS",
    "state": "AK",
    "latitude": 54.85,
    "longitude": -163.417
  },
  {
    "id": "PABA",
    "name": "BARTER ISLAND AIRPORT",
    "state": "AK",
    "latitude": 70.134,
    "longitude": -143.577
  },
  {
    "id": "PALU",
    "name": "CAPE LISBURNE LRRS AIRPORT",
    "state": "AK",
    "latitude": 68.867,
    "longitude": -166.133
  },
  {
    "id": "PAPO",
    "name": "POINT HOPE AIRPORT",
    "state": "AK",
    "latitude": 68.35,
    "longitude": -166.8
  },
  {
    "id": "PADG",
    "name": "RED DOG AIRPORT",
    "state": "AK",
    "latitude": 68.031,
    "longitude": -162.903
  },
  {
    "id": "PATC",
    "name": "TIN CITY LRRS AIRPORT",
    "state": "AK",
    "latitude": 65.563,
    "longitude": -167.921
  },
  {
    "id": "PASH",
    "name": "SHISHMAREF/NEW AIRPORT",
    "state": "AK",
    "latitude": 66.25,
    "longitude": -166.089
  },
  {
    "id": "PAIK",
    "name": "BOB BARKER MEMORIAL AIRPORT",
    "state": "AK",
    "latitude": 66.983,
    "longitude": -160.433
  },
  {
    "id": "PPIZ",
    "name": "POINT LAY LRRS AIRPORT",
    "state": "AK",
    "latitude": 69.733,
    "longitude": -163.005
  },
  {
    "id": "PAOT",
    "name": "RALPH WIEN MEMORIAL AIRPORT",
    "state": "AK",
    "latitude": 66.886,
    "longitude": -162.607
  },
  {
    "id": "PADE",
    "name": "DEERING AIRPORT",
    "state": "AK",
    "latitude": 66.07,
    "longitude": -162.761
  },
  {
    "id": "PAWN",
    "name": "NOATAK AIRPORT",
    "state": "AK",
    "latitude": 67.566,
    "longitude": -162.975
  },
  {
    "id": "PAIW",
    "name": "WALES AIRPORT",
    "state": "AK",
    "latitude": 65.617,
    "longitude": -168.1
  },
  {
    "id": "PAVA",
    "name": "CHEVAK AIRPORT",
    "state": "AK",
    "latitude": 61.533,
    "longitude": -165.583
  },
  {
    "id": "PAVL",
    "name": "KIVALINA AIRPORT",
    "state": "AK",
    "latitude": 67.731,
    "longitude": -164.548
  },
  {
    "id": "PAKP",
    "name": "ANAKTUVUK PASS AIRPORT",
    "state": "AK",
    "latitude": 68.167,
    "longitude": -151.767
  },
  {
    "id": "PAGH",
    "name": "SHUNGNAK AIRPORT",
    "state": "AK",
    "latitude": 66.888,
    "longitude": -157.162
  },
  {
    "id": "PAIM",
    "name": "INDIAN MOUNTAIN LRRS ARPT",
    "state": "AK",
    "latitude": 66.0,
    "longitude": -153.7
  },
  {
    "id": "PABT",
    "name": "BETTLES AIRPORT",
    "state": "AK",
    "latitude": 66.918,
    "longitude": -151.519
  },
  {
    "id": "PAPR",
    "name": "PROSPECT CREEK AIRPORT",
    "state": "AK",
    "latitude": 66.817,
    "longitude": -150.65
  },
  {
    "id": "PATA",
    "name": "RALPH M CALHOUN MEML ARPT",
    "state": "AK",
    "latitude": 65.173,
    "longitude": -152.107
  },
  {
    "id": "PFYU",
    "name": "FORT YUKON AIRPORT",
    "state": "AK",
    "latitude": 66.567,
    "longitude": -145.267
  },
  {
    "id": "PARC",
    "name": "ARCTIC VILLAGE AIRPORT",
    "state": "AK",
    "latitude": 68.115,
    "longitude": -145.579
  },
  {
    "id": "PAEG",
    "name": "EAGLE AIRPORT",
    "state": "AK",
    "latitude": 64.776,
    "longitude": -141.164
  },
  {
    "id": "PAGL",
    "name": "CAPE DARBY REMOT COM OUTLT",
    "state": "AK",
    "latitude": 64.55,
    "longitude": -163.007
  },
  {
    "id": "PAOM",
    "name": "NOME AIRPORT",
    "state": "AK",
    "latitude": 64.511,
    "longitude": -165.44
  },
  {
    "id": "PAWM",
    "name": "WHITE MOUNTAIN",
    "state": "AK",
    "latitude": 64.689,
    "longitude": -163.413
  },
  {
    "id": "PASM",
    "name": "ST MARY'S AIRPORT",
    "state": "AK",
    "latitude": 62.062,
    "longitude": -163.3
  },
  {
    "id": "PAKV",
    "name": "KALTAG AIRPORT",
    "state": "AK",
    "latitude": 64.321,
    "longitude": -158.733
  },
  {
    "id": "PASA",
    "name": "SAVOONGA AIRPORT",
    "state": "AK",
    "latitude": 63.687,
    "longitude": -170.493
  },
  {
    "id": "PAGM",
    "name": "GAMBELL AIRPORT",
    "state": "AK",
    "latitude": 63.767,
    "longitude": -171.733
  },
  {
    "id": "PAUN",
    "name": "UNALAKLEET AIRPORT",
    "state": "AK",
    "latitude": 63.883,
    "longitude": -160.8
  },
  {
    "id": "PANV",
    "name": "ANVIK AIRPORT",
    "state": "AK",
    "latitude": 62.65,
    "longitude": -160.183
  },
  {
    "id": "PAEM",
    "name": "EMMONAK",
    "state": "AK",
    "latitude": 62.785,
    "longitude": -164.491
  },
  {
    "id": "PACZ",
    "name": "CAPE ROMANZOF LRRS ARPT",
    "state": "AK",
    "latitude": 61.783,
    "longitude": -166.033
  },
  {
    "id": "PAMY",
    "name": "MEKORYUK AIRPORT",
    "state": "AK",
    "latitude": 60.383,
    "longitude": -166.2
  },
  {
    "id": "PABE",
    "name": "BETHEL AIRPORT",
    "state": "AK",
    "latitude": 60.785,
    "longitude": -161.829
  },
  {
    "id": "PANA",
    "name": "NAPAKIAK",
    "state": "AK",
    "latitude": 60.683,
    "longitude": -161.983
  },
  {
    "id": "PAGA",
    "name": "GALENA AIRPORT",
    "state": "AK",
    "latitude": 64.737,
    "longitude": -156.934
  },
  {
    "id": "PAKK",
    "name": "KOYUK AIRPORT",
    "state": "AK",
    "latitude": 64.935,
    "longitude": -161.155
  },
  {
    "id": "PAMC",
    "name": "MCGRATH AIRPORT",
    "state": "AK",
    "latitude": 62.957,
    "longitude": -155.61
  },
  {
    "id": "PATL",
    "name": "TATALINA LRRS AIRPORT",
    "state": "AK",
    "latitude": 62.894,
    "longitude": -155.976
  },
  {
    "id": "PANI",
    "name": "ANIAK AIRPORT",
    "state": "AK",
    "latitude": 61.582,
    "longitude": -159.543
  },
  {
    "id": "PAWS",
    "name": "WASILLA AIRPORT",
    "state": "AK",
    "latitude": 61.572,
    "longitude": -149.541
  },
  {
    "id": "PASV",
    "name": "SPARREVOHN LRRS AIRPORT",
    "state": "AK",
    "latitude": 61.1,
    "longitude": -155.583
  },
  {
    "id": "PAMH",
    "name": "MINCHUMINA",
    "state": "AK",
    "latitude": 63.886,
    "longitude": -152.302
  },
  {
    "id": "PAPT",
    "name": "PUNTILLA LAKE",
    "state": "AK",
    "latitude": 62.091,
    "longitude": -152.735
  },
  {
    "id": "PATK",
    "name": "TALKEETNA AIRPORT",
    "state": "AK",
    "latitude": 62.32,
    "longitude": -150.097
  },
  {
    "id": "PAEN",
    "name": "KENAI MUNICIPAL AIRPORT",
    "state": "AK",
    "latitude": 60.579,
    "longitude": -151.242
  },
  {
    "id": "PASX",
    "name": "SOLDOTNA AIRPORT",
    "state": "AK",
    "latitude": 60.476,
    "longitude": -151.034
  },
  {
    "id": "PANN",
    "name": "NENANA MUNICIPAL AIRPORT",
    "state": "AK",
    "latitude": 64.547,
    "longitude": -149.087
  },
  {
    "id": "PAOH",
    "name": "HOONAH SEAPLANE BASE",
    "state": "AK",
    "latitude": 58.096,
    "longitude": -135.409
  },
  {
    "id": "PAFA",
    "name": "FAIRBANKS INTERNATIONAL",
    "state": "AK",
    "latitude": 64.803,
    "longitude": -147.876
  },
  {
    "id": "PAFB",
    "name": "WAINWRIGHT AAF AIRPORT",
    "state": "AK",
    "latitude": 64.838,
    "longitude": -147.614
  },
  {
    "id": "PAFS",
    "name": "NIKOLAI AIRPORT",
    "state": "AK",
    "latitude": 63.017,
    "longitude": -154.367
  },
  {
    "id": "PAPN",
    "name": "PILOT POINT",
    "state": "AK",
    "latitude": 57.58,
    "longitude": -157.58
  },
  {
    "id": "PARY",
    "name": "RUBY AIRPORT",
    "state": "AK",
    "latitude": 64.727,
    "longitude": -155.47
  },
  {
    "id": "PADM",
    "name": "MARSHALL DON HUNTER SR AIRPORT",
    "state": "AK",
    "latitude": 61.867,
    "longitude": -162.033
  },
  {
    "id": "PAIN",
    "name": "MCKINLEY NATIONAL PARK AIRPORT",
    "state": "AK",
    "latitude": 63.733,
    "longitude": -148.917
  },
  {
    "id": "PAEI",
    "name": "EIELSON AFB AIRPORT",
    "state": "AK",
    "latitude": 64.683,
    "longitude": -147.083
  },
  {
    "id": "PABI",
    "name": "ALLEN ARMY AIRFIELD",
    "state": "AK",
    "latitude": 63.993,
    "longitude": -145.721
  },
  {
    "id": "PATQ",
    "name": "ATQASUK EDWARD BURNELL SR. MEMORIAL AIRPORT",
    "state": "AK",
    "latitude": 70.467,
    "longitude": -157.436
  },
  {
    "id": "PAKI",
    "name": "KIPNUK AIRPORT",
    "state": "AK",
    "latitude": 59.932,
    "longitude": -164.028
  },
  {
    "id": "PANW",
    "name": "NEW STUYAHOK AIRPORT",
    "state": "AK",
    "latitude": 59.45,
    "longitude": -157.333
  },
  {
    "id": "PAFR",
    "name": "BRYANT ARMY AIRFIELD HELIPORT",
    "state": "AK",
    "latitude": 61.266,
    "longitude": -149.653
  },
  {
    "id": "PAGK",
    "name": "GULKANA AIRPORT",
    "state": "AK",
    "latitude": 62.159,
    "longitude": -145.459
  },
  {
    "id": "PAZK",
    "name": "SKELTON AIRPORT",
    "state": "AK",
    "latitude": 61.949,
    "longitude": -147.169
  },
  {
    "id": "PAED",
    "name": "ELMENDORF AFB AIRPORT",
    "state": "AK",
    "latitude": 61.253,
    "longitude": -149.794
  },
  {
    "id": "PALH",
    "name": "LAKE HOOD SEAPLANE BASE",
    "state": "AK",
    "latitude": 61.179,
    "longitude": -149.965
  },
  {
    "id": "PANC",
    "name": "TED STEVENS ANCHORAGE INTL",
    "state": "AK",
    "latitude": 61.169,
    "longitude": -150.028
  },
  {
    "id": "PAMR",
    "name": "MERRILL FIELD AIRPORT",
    "state": "AK",
    "latitude": 61.216,
    "longitude": -149.857
  },
  {
    "id": "PAAQ",
    "name": "PALMER MUNICIPAL AIRPORT",
    "state": "AK",
    "latitude": 61.595,
    "longitude": -149.092
  },
  {
    "id": "PABV",
    "name": "BIRCHWOOD AIRPORT",
    "state": "AK",
    "latitude": 61.416,
    "longitude": -149.507
  },
  {
    "id": "PAVD",
    "name": "VALDEZ PIONEER FIELD AIRPORT",
    "state": "AK",
    "latitude": 61.132,
    "longitude": -146.244
  },
  {
    "id": "PALP",
    "name": "ALPINE AIRSTRIP",
    "state": "AK",
    "latitude": 70.344,
    "longitude": -150.945
  },
  {
    "id": "PAWD",
    "name": "SEWARD AIRPORT",
    "state": "AK",
    "latitude": 60.129,
    "longitude": -149.418
  },
  {
    "id": "PAOR",
    "name": "NORTHWAY AIRPORT",
    "state": "AK",
    "latitude": 62.961,
    "longitude": -141.938
  },
  {
    "id": "PACV",
    "name": "M.K.(MUDHOLE) SMITH ARPT",
    "state": "AK",
    "latitude": 60.486,
    "longitude": -145.445
  },
  {
    "id": "PAEH",
    "name": "CAPE HEWENHAM LRRS AIRPORT",
    "state": "AK",
    "latitude": 58.65,
    "longitude": -162.067
  },
  {
    "id": "PAHC",
    "name": "HOLY CROSS AIRPORT",
    "state": "AK",
    "latitude": 62.183,
    "longitude": -159.767
  },
  {
    "id": "PALG",
    "name": "KALSKAG AIRPORT",
    "state": "AK",
    "latitude": 61.536,
    "longitude": -160.341
  },
  {
    "id": "PARS",
    "name": "RUSSIAN MISSION AIRPORT",
    "state": "AK",
    "latitude": 61.775,
    "longitude": -161.319
  },
  {
    "id": "PACM",
    "name": "SCAMMON BAY AIRPORT",
    "state": "AK",
    "latitude": 61.85,
    "longitude": -165.567
  },
  {
    "id": "PAMB",
    "name": "MANOKOTAK AIRPORT",
    "state": "AK",
    "latitude": 58.983,
    "longitude": -159.05
  },
  {
    "id": "PAMO",
    "name": "MOUNTAIN VILLAGE AIRPORT",
    "state": "AK",
    "latitude": 62.095,
    "longitude": -163.682
  },
  {
    "id": "PAOO",
    "name": "TOKSOOK BAY AIRPORT",
    "state": "AK",
    "latitude": 60.541,
    "longitude": -165.087
  },
  {
    "id": "PAOU",
    "name": "NELSON LAGOON AIRPORT",
    "state": "AK",
    "latitude": 56.017,
    "longitude": -161.167
  },
  {
    "id": "PAVC",
    "name": "KING COVE",
    "state": "",
    "latitude": 55.116,
    "longitude": -162.267
  },
  {
    "id": "PAIG",
    "name": "IGIUGIG AIRPORT",
    "state": "AK",
    "latitude": 59.324,
    "longitude": -155.902
  },
  {
    "id": "PASN",
    "name": "ST PAUL ISLAND AIRPORT",
    "state": "AK",
    "latitude": 57.155,
    "longitude": -170.223
  },
  {
    "id": "PACD",
    "name": "COLD BAY AIRPORT",
    "state": "AK",
    "latitude": 55.221,
    "longitude": -162.732
  },
  {
    "id": "PASD",
    "name": "SAND POINT AIRPORT",
    "state": "AK",
    "latitude": 55.319,
    "longitude": -160.521
  },
  {
    "id": "PADL",
    "name": "DILLINGHAM AIRPORT",
    "state": "AK",
    "latitude": 59.05,
    "longitude": -158.517
  },
  {
    "id": "PAKN",
    "name": "KING SALMON AIRPORT",
    "state": "AK",
    "latitude": 58.683,
    "longitude": -156.656
  },
  {
    "id": "PAPH",
    "name": "PORT HEIDEN AIRPORT",
    "state": "AK",
    "latitude": 56.959,
    "longitude": -158.632
  },
  {
    "id": "PAJC",
    "name": "CHIGNIK AIRPORT",
    "state": "AK",
    "latitude": 56.311,
    "longitude": -158.373
  },
  {
    "id": "PAII",
    "name": "EGEGIK AIRPORT",
    "state": "AK",
    "latitude": 58.185,
    "longitude": -157.386
  },
  {
    "id": "PFWS",
    "name": "SOUTH NAKNEK ARPT",
    "state": "AK",
    "latitude": 58.7,
    "longitude": -157.0
  },
  {
    "id": "PAIL",
    "name": "ILIAMNA AIRPORT",
    "state": "AK",
    "latitude": 59.749,
    "longitude": -154.909
  },
  {
    "id": "PALJ",
    "name": "PORT ALSWORTH AIRPORT",
    "state": "AK",
    "latitude": 60.204,
    "longitude": -154.316
  },
  {
    "id": "PASL",
    "name": "SLEETMUTE AIRPORT",
    "state": "AK",
    "latitude": 61.717,
    "longitude": -157.15
  },
  {
    "id": "PAHO",
    "name": "HOMER AIRPORT",
    "state": "AK",
    "latitude": 59.642,
    "longitude": -151.491
  },
  {
    "id": "PAMD",
    "name": "MIDDLETON ISLAND METEOROLOGY RADAR SITE",
    "state": "AK",
    "latitude": 59.433,
    "longitude": -146.333
  },
  {
    "id": "PADQ",
    "name": "KODIAK AIRPORT",
    "state": "AK",
    "latitude": 57.751,
    "longitude": -152.488
  },
  {
    "id": "PAPM",
    "name": "PLATINUM AIRPORT",
    "state": "AK",
    "latitude": 59.011,
    "longitude": -161.82
  },
  {
    "id": "PATG",
    "name": "TOGIAK AIRPORT",
    "state": "AK",
    "latitude": 59.067,
    "longitude": -160.367
  },
  {
    "id": "PACX",
    "name": "COLDFOOT AIRPORT",
    "state": "AK",
    "latitude": 67.252,
    "longitude": -150.204
  },
  {
    "id": "PAYA",
    "name": "YAKUTAT AIRPORT",
    "state": "AK",
    "latitude": 59.512,
    "longitude": -139.671
  },
  {
    "id": "PAGY",
    "name": "SKAGWAY AIRPORT",
    "state": "AK",
    "latitude": 59.454,
    "longitude": -135.328
  },
  {
    "id": "PASO",
    "name": "SELDOVIA AIRPORT",
    "state": "AK",
    "latitude": 59.446,
    "longitude": -151.707
  },
  {
    "id": "PAHN",
    "name": "HAINES",
    "state": "AK",
    "latitude": 59.243,
    "longitude": -135.511
  },
  {
    "id": "PAQT",
    "name": "NUIQSUT AIRPORT",
    "state": "AK",
    "latitude": 70.213,
    "longitude": -150.994
  },
  {
    "id": "PAHL",
    "name": "HUSLIA AIRPORT",
    "state": "AK",
    "latitude": 65.698,
    "longitude": -156.351
  },
  {
    "id": "PAQH",
    "name": "QUINHAGAK AIRPORT",
    "state": "AK",
    "latitude": 59.75,
    "longitude": -161.833
  },
  {
    "id": "PAGS",
    "name": "GUSTAVUS",
    "state": "AK",
    "latitude": 58.411,
    "longitude": -135.709
  },
  {
    "id": "PASI",
    "name": "SITKA ROCKY GUTIERREZ ARPT",
    "state": "AK",
    "latitude": 57.047,
    "longitude": -135.367
  },
  {
    "id": "PAJN",
    "name": "JUNEAU INTERNATIONAL",
    "state": "AK",
    "latitude": 58.354,
    "longitude": -134.556
  },
  {
    "id": "PAEL",
    "name": "ELFIN COVE SEAPLANE BASE",
    "state": "AK",
    "latitude": 58.192,
    "longitude": -136.344
  },
  {
    "id": "PAGN",
    "name": "ANGOON SEAPLANE BASE",
    "state": "AK",
    "latitude": 57.499,
    "longitude": -134.586
  },
  {
    "id": "PAPB",
    "name": "ST. GEORGE AIRPORT",
    "state": "AK",
    "latitude": 56.575,
    "longitude": -169.663
  },
  {
    "id": "PAFE",
    "name": "KAKE AIRPORT",
    "state": "AK",
    "latitude": 56.967,
    "longitude": -133.9
  },
  {
    "id": "PAPG",
    "name": "JAMES A JOHNSON AIRPORT",
    "state": "AK",
    "latitude": 56.806,
    "longitude": -132.937
  },
  {
    "id": "PAWG",
    "name": "WRANGELL AIRPORT",
    "state": "AK",
    "latitude": 56.473,
    "longitude": -132.387
  },
  {
    "id": "PAHY",
    "name": "HYDABURG SEAPLANE BASE",
    "state": "AK",
    "latitude": 55.206,
    "longitude": -132.828
  },
  {
    "id": "PFSH",
    "name": "SHAKTOOLIK AIRPORT",
    "state": "AK",
    "latitude": 64.37,
    "longitude": -161.224
  },
  {
    "id": "PFEL",
    "name": "ELIM AIRPORT",
    "state": "AK",
    "latitude": 64.617,
    "longitude": -162.267
  },
  {
    "id": "PAKW",
    "name": "KLAWOCK AIRPORT",
    "state": "AK",
    "latitude": 55.582,
    "longitude": -133.075
  },
  {
    "id": "PAJZ",
    "name": "KOLIGANEK AIRPORT",
    "state": "AK",
    "latitude": 59.733,
    "longitude": -157.267
  },
  {
    "id": "PAKH",
    "name": "AKHIOK",
    "state": "AK",
    "latitude": 56.933,
    "longitude": -154.183
  },
  {
    "id": "PAKT",
    "name": "KETCHIKAN INTL AIRPORT",
    "state": "AK",
    "latitude": 55.359,
    "longitude": -131.722
  },
  {
    "id": "PAMM",
    "name": "METLAKATLA SEAPLANE BASE",
    "state": "AK",
    "latitude": 55.131,
    "longitude": -131.578
  },
  {
    "id": "PASY",
    "name": "EARECKSON AIR STATION AIRPORT",
    "state": "AK",
    "latitude": 52.717,
    "longitude": 174.1
  },
  {
    "id": "PADK",
    "name": "ADAK NAS",
    "state": "AK",
    "latitude": 51.883,
    "longitude": -176.65
  },
  {
    "id": "PADU",
    "name": "DUTCH HARBOR AIRPORT",
    "state": "AK",
    "latitude": 53.895,
    "longitude": -166.543
  },
  {
    "id": "PFNO",
    "name": "ROBERT (BOB) CURTIS MEMORIAL AIRPORT",
    "state": "AK",
    "latitude": 66.818,
    "longitude": -161.022
  },
  {
    "id": "KAQO",
    "name": "LLANO MUNICIPAL AIRPORT",
    "state": "TX",
    "latitude": 30.784,
    "longitude": -98.662
  },
  {
    "id": "KVLL",
    "name": "OAKLAND/TROY AIRPORT",
    "state": "MI",
    "latitude": 42.543,
    "longitude": -83.178
  },
  {
    "id": "KHXD",
    "name": "HILTON HEAD AIRPORT",
    "state": "SC",
    "latitude": 32.217,
    "longitude": -80.7
  },
  {
    "id": "KTMT",
    "name": "AUSTIN ARPT",
    "state": "NV",
    "latitude": 39.468,
    "longitude": -117.197
  },
  {
    "id": "KC09",
    "name": "MORS MUNI-J.R. WSBRN FD AP",
    "state": "IL",
    "latitude": 41.425,
    "longitude": -88.419
  },
  {
    "id": "KE38",
    "name": "ALPINE-CASPARIS MUNI ARPT",
    "state": "TX",
    "latitude": 30.383,
    "longitude": -103.683
  },
  {
    "id": "KM04",
    "name": "COVINGTON MUNI",
    "state": "TN",
    "latitude": 35.583,
    "longitude": -89.587
  },
  {
    "id": "KFYG",
    "name": "WASHINGTON REGIONAL AIRPORT",
    "state": "MO",
    "latitude": 38.583,
    "longitude": -91.0
  },
  {
    "id": "KM30",
    "name": "METROPOLIS MUNICIPAL AIRPORT",
    "state": "IL",
    "latitude": 37.186,
    "longitude": -88.751
  },
  {
    "id": "KM08",
    "name": "WILLIAM L WHITEHURST FLD",
    "state": "TN",
    "latitude": 35.214,
    "longitude": -89.043
  },
  {
    "id": "KMEZ",
    "name": "MENA INTERMOUNTAIN MUNICIPAL AIRPORT",
    "state": "AR",
    "latitude": 34.545,
    "longitude": -94.203
  },
  {
    "id": "KLLQ",
    "name": "MONTCELO MUNI/ELLIS FLD AP",
    "state": "AR",
    "latitude": 33.636,
    "longitude": -91.756
  },
  {
    "id": "KO54",
    "name": "LONNIE POOL FIELD WEAVERVILLE AIRPORT",
    "state": "CA",
    "latitude": 40.747,
    "longitude": -122.922
  },
  {
    "id": "KP53",
    "name": "MUNISING LAKESHORE",
    "state": "MI",
    "latitude": 46.412,
    "longitude": -86.65
  },
  {
    "id": "KTMK",
    "name": "TILLAMOOK AIRPORT",
    "state": "OR",
    "latitude": 45.417,
    "longitude": -123.817
  },
  {
    "id": "KCLS",
    "name": "CHEHALIS CENTRALIA AIRPORT",
    "state": "WA",
    "latitude": 46.683,
    "longitude": -122.983
  },
  {
    "id": "KMIO",
    "name": "MIAMI MUNI",
    "state": "OK",
    "latitude": 36.909,
    "longitude": -94.888
  },
  {
    "id": "KBIJ",
    "name": "EARLY COUNTY AIRPORT",
    "state": "GA",
    "latitude": 31.397,
    "longitude": -84.895
  },
  {
    "id": "KHZX",
    "name": "ISEDOR IVERSON AIRPORT",
    "state": "MN",
    "latitude": 46.619,
    "longitude": -93.31
  },
  {
    "id": "KXBP",
    "name": "BRIDGEPORT MUNICIPAL ARPT",
    "state": "TX",
    "latitude": 33.175,
    "longitude": -97.828
  },
  {
    "id": "K27A",
    "name": "ELBERT CO-PATZ FLD AIRPORT",
    "state": "GA",
    "latitude": 34.095,
    "longitude": -82.816
  },
  {
    "id": "KALX",
    "name": "THOMAS C RUSSELL FLD ARPT",
    "state": "AL",
    "latitude": 32.915,
    "longitude": -85.963
  },
  {
    "id": "KASW",
    "name": "WARSAW MUNICIPAL AIRPORT",
    "state": "IN",
    "latitude": 41.275,
    "longitude": -85.84
  },
  {
    "id": "KAUN",
    "name": "AUBURN MUNICIPAL AIRPORT",
    "state": "CA",
    "latitude": 38.955,
    "longitude": -121.082
  },
  {
    "id": "KBGE",
    "name": "DCATR CO INDUS AIRPK ARPT",
    "state": "GA",
    "latitude": 30.983,
    "longitude": -84.633
  },
  {
    "id": "KBKS",
    "name": "BROOKS COUNTY AIRPORT",
    "state": "TX",
    "latitude": 27.207,
    "longitude": -98.121
  },
  {
    "id": "KBPG",
    "name": "BIG SRNG MCMHN-WRKLE ARPT",
    "state": "TX",
    "latitude": 32.213,
    "longitude": -101.521
  },
  {
    "id": "KBVS",
    "name": "SKAGIT REGIONAL AIRPORT",
    "state": "WA",
    "latitude": 48.467,
    "longitude": -122.417
  },
  {
    "id": "KBYY",
    "name": "BAY CITY MUNICIPAL AIRPORT",
    "state": "TX",
    "latitude": 28.973,
    "longitude": -95.863
  },
  {
    "id": "KCPC",
    "name": "COLUMBUS CO MUNICIPAL ARPT",
    "state": "NC",
    "latitude": 34.273,
    "longitude": -78.715
  },
  {
    "id": "KDUH",
    "name": "TOLEDO SUBURBAN AIRPORT",
    "state": "MI",
    "latitude": 41.736,
    "longitude": -83.655
  },
  {
    "id": "KEBG",
    "name": "EDINBURG INTL AIRPORT",
    "state": "TX",
    "latitude": 26.442,
    "longitude": -98.129
  },
  {
    "id": "KEHO",
    "name": "SHELBY MUNICIPAL AIRPORT",
    "state": "NC",
    "latitude": 35.256,
    "longitude": -81.601
  },
  {
    "id": "KEMV",
    "name": "EMPORIA-GRENVLE RGNL ARPT",
    "state": "VA",
    "latitude": 36.687,
    "longitude": -77.483
  },
  {
    "id": "KEYF",
    "name": "CURTIS L BROWN JR FLD ARPT",
    "state": "NC",
    "latitude": 34.602,
    "longitude": -78.578
  },
  {
    "id": "KFFA",
    "name": "FIRST FLIGHT AIRPORT",
    "state": "NC",
    "latitude": 36.018,
    "longitude": -75.671
  },
  {
    "id": "KFKA",
    "name": "FILLMORE COUNTY AIRPORT",
    "state": "MN",
    "latitude": 43.677,
    "longitude": -92.18
  },
  {
    "id": "KFPK",
    "name": "FITCH H BEACH AIRPORT",
    "state": "MI",
    "latitude": 42.574,
    "longitude": -84.811
  },
  {
    "id": "KFYJ",
    "name": "MIDDLE PENINSULA REGIONAL AIRPORT",
    "state": "VA",
    "latitude": 37.521,
    "longitude": -76.765
  },
  {
    "id": "KGDJ",
    "name": "GRANBURY MUNICIPAL ARPT",
    "state": "TX",
    "latitude": 32.444,
    "longitude": -97.817
  },
  {
    "id": "KGYI",
    "name": "GRAYSON COUNTY AIRPORT",
    "state": "TX",
    "latitude": 33.714,
    "longitude": -96.674
  },
  {
    "id": "KHNZ",
    "name": "HENDERSON-OXFORD AIRPORT",
    "state": "NC",
    "latitude": 36.361,
    "longitude": -78.529
  },
  {
    "id": "KHQU",
    "name": "THOMSON-MCDUFFIE CO ARPT",
    "state": "GA",
    "latitude": 33.53,
    "longitude": -82.516
  },
  {
    "id": "KHQZ",
    "name": "MESQUITE METROPOLITAN ARPT",
    "state": "TX",
    "latitude": 32.747,
    "longitude": -96.531
  },
  {
    "id": "KIIB",
    "name": "INDEPENDENCE MUNICIPAL APT",
    "state": "IA",
    "latitude": 42.453,
    "longitude": -91.948
  },
  {
    "id": "KIIY",
    "name": "WASHINGTON-WILKES CO ARPT",
    "state": "GA",
    "latitude": 33.78,
    "longitude": -82.816
  },
  {
    "id": "KINJ",
    "name": "HILLSBORO MUNICIPAL ARPT",
    "state": "TX",
    "latitude": 32.084,
    "longitude": -97.097
  },
  {
    "id": "KJAS",
    "name": "JASPER COUNTY-BELL FLD APT",
    "state": "TX",
    "latitude": 30.886,
    "longitude": -94.035
  },
  {
    "id": "KJGG",
    "name": "WILLIAMSBURG-JAMESTOWN APT",
    "state": "VA",
    "latitude": 37.239,
    "longitude": -76.716
  },
  {
    "id": "KJSO",
    "name": "CHEROKEE COUNTY AIRPORT",
    "state": "TX",
    "latitude": 31.869,
    "longitude": -95.218
  },
  {
    "id": "KJWY",
    "name": "MID-WAY REGIONAL AIRPORT",
    "state": "TX",
    "latitude": 32.456,
    "longitude": -96.913
  },
  {
    "id": "KJYL",
    "name": "PLANTATION AIRPARK",
    "state": "GA",
    "latitude": 32.646,
    "longitude": -81.596
  },
  {
    "id": "KLHB",
    "name": "HEARNE MUNICIPAL AIRPORT",
    "state": "TX",
    "latitude": 30.872,
    "longitude": -96.622
  },
  {
    "id": "KLOM",
    "name": "WINGS FIELD AIRPORT",
    "state": "PA",
    "latitude": 40.1,
    "longitude": -75.267
  },
  {
    "id": "KLUD",
    "name": "DECATUR MUNICIPAL AIRPORT",
    "state": "TX",
    "latitude": 33.254,
    "longitude": -97.581
  },
  {
    "id": "KLXT",
    "name": "LEE'S SUMMIT MUNICIPAL APT",
    "state": "MO",
    "latitude": 38.958,
    "longitude": -94.371
  },
  {
    "id": "KMDQ",
    "name": "MADISON CO EXECUTIVE ARPT",
    "state": "AL",
    "latitude": 34.861,
    "longitude": -86.557
  },
  {
    "id": "KMLE",
    "name": "MILLARD AIRPORT",
    "state": "NE",
    "latitude": 41.196,
    "longitude": -96.112
  },
  {
    "id": "KMPZ",
    "name": "MOUNT PLEASANT MUNI ARPT",
    "state": "IA",
    "latitude": 40.947,
    "longitude": -91.511
  },
  {
    "id": "KOSA",
    "name": "MOUNT PLEASANT RGNL ARPT",
    "state": "TX",
    "latitude": 33.096,
    "longitude": -94.961
  },
  {
    "id": "KPEA",
    "name": "PELLA MUNICIPAL AIRPORT",
    "state": "IA",
    "latitude": 41.4,
    "longitude": -92.946
  },
  {
    "id": "KPPA",
    "name": "PERRY LEFORS FIELD AIRPORT",
    "state": "TX",
    "latitude": 35.613,
    "longitude": -100.996
  },
  {
    "id": "KPSN",
    "name": "PALESTINE MUNICIPAL ARPT",
    "state": "TX",
    "latitude": 31.78,
    "longitude": -95.706
  },
  {
    "id": "KPYX",
    "name": "PERRYTON OCHILTREE CO ARPT",
    "state": "TX",
    "latitude": 36.414,
    "longitude": -100.75
  },
  {
    "id": "KRBO",
    "name": "NUECES COUNTY ARIPORT",
    "state": "TX",
    "latitude": 27.779,
    "longitude": -97.691
  },
  {
    "id": "KRMN",
    "name": "STAFFORD REGIONAL AIRPORT",
    "state": "VA",
    "latitude": 38.398,
    "longitude": -77.456
  },
  {
    "id": "KRPH",
    "name": "GRAHAM MUNICIPAL AIRPORT",
    "state": "TX",
    "latitude": 33.11,
    "longitude": -98.555
  },
  {
    "id": "KRSV",
    "name": "ROBINSON MUNICIPAL AIRPORT",
    "state": "IL",
    "latitude": 39.016,
    "longitude": -87.65
  },
  {
    "id": "KCPT",
    "name": "CLEBURNE MUNICIPAL AIRPORT",
    "state": "TX",
    "latitude": 32.354,
    "longitude": -97.434
  },
  {
    "id": "KSLH",
    "name": "CHEBOYGAN COUNTY AIRPORT",
    "state": "MI",
    "latitude": 45.654,
    "longitude": -84.519
  },
  {
    "id": "KSZT",
    "name": "SANDPOINT AIRPORT",
    "state": "ID",
    "latitude": 48.299,
    "longitude": -116.56
  },
  {
    "id": "KT82",
    "name": "GILLESPIE CO",
    "state": "TX",
    "latitude": 30.243,
    "longitude": -98.91
  },
  {
    "id": "KUKT",
    "name": "QUAKERTOWN AIRPORT",
    "state": "PA",
    "latitude": 40.435,
    "longitude": -75.382
  },
  {
    "id": "KVTI",
    "name": "VINTON VETERANS MEMORIAL AIRPARK AIRPORT",
    "state": "IA",
    "latitude": 42.219,
    "longitude": -92.026
  },
  {
    "id": "KLUM",
    "name": "MENOMONIE MUNICIPAL AIRPORT-SCORE FIELD",
    "state": "WI",
    "latitude": 44.892,
    "longitude": -91.868
  },
  {
    "id": "KW22",
    "name": "UPSHUR COUNTY RGNL AIRPORT",
    "state": "WV",
    "latitude": 39.0,
    "longitude": -80.274
  },
  {
    "id": "KCCB",
    "name": "CABLE",
    "state": "CA",
    "latitude": 34.112,
    "longitude": -117.688
  },
  {
    "id": "KAJG",
    "name": "MOUNT CARMEL MUNICIPAL AIRPORT",
    "state": "IL",
    "latitude": 38.607,
    "longitude": -87.727
  },
  {
    "id": "KTKX",
    "name": "KENNETT MEM",
    "state": "MO",
    "latitude": 36.226,
    "longitude": -90.037
  },
  {
    "id": "KVMR",
    "name": "HAROLD DAVIDSON FLD",
    "state": "SD",
    "latitude": 42.765,
    "longitude": -96.934
  },
  {
    "id": "KAJO",
    "name": "CORONA MUNICIPAL AIRPORT",
    "state": "CA",
    "latitude": 33.898,
    "longitude": -117.602
  },
  {
    "id": "KGAI",
    "name": "GAITHERSBURG MONTGOMERY COUNTY AIR PARK",
    "state": "MD",
    "latitude": 39.167,
    "longitude": -77.167
  },
  {
    "id": "KFSK",
    "name": "FORT SCOTT MUNI",
    "state": "KS",
    "latitude": 37.798,
    "longitude": -94.769
  },
  {
    "id": "KRYN",
    "name": "RYAN FIELD AIRPORT",
    "state": "AZ",
    "latitude": 32.15,
    "longitude": -111.167
  },
  {
    "id": "KFKS",
    "name": "FRANKFORT DOW MEMORIAL FIELD AIRPORT",
    "state": "MI",
    "latitude": 44.626,
    "longitude": -86.201
  },
  {
    "id": "KJWG",
    "name": "WATONGA AIRPORT",
    "state": "OK",
    "latitude": 35.864,
    "longitude": -98.421
  },
  {
    "id": "KPCZ",
    "name": "WAUPACA MUNICIPAL AIRPORT",
    "state": "WI",
    "latitude": 44.333,
    "longitude": -89.02
  },
  {
    "id": "KCKP",
    "name": "CHEROKEE MUNICIPAL AIRPORT/",
    "state": "IA",
    "latitude": 42.732,
    "longitude": -95.556
  },
  {
    "id": "KPNA",
    "name": "RALPH WENZ FIELD AIRPORT",
    "state": "WY",
    "latitude": 42.796,
    "longitude": -109.807
  },
  {
    "id": "KACP",
    "name": "ALLEN PARISH AIRPORT",
    "state": "LA",
    "latitude": 30.75,
    "longitude": -92.688
  },
  {
    "id": "K3J7",
    "name": "GREENE COUNTY REGIONAL AIRPORT",
    "state": "GA",
    "latitude": 33.598,
    "longitude": -83.139
  },
  {
    "id": "KMLJ",
    "name": "BALDWIN COUNTY AIRPORT",
    "state": "GA",
    "latitude": 33.154,
    "longitude": -83.241
  },
  {
    "id": "KOOA",
    "name": "OSKALOOSA MUNICIPAL AIRPORT",
    "state": "IA",
    "latitude": 41.226,
    "longitude": -92.491
  },
  {
    "id": "KCYD",
    "name": "MISSISSIPPI CANYON",
    "state": "LA",
    "latitude": 28.17,
    "longitude": -89.22
  },
  {
    "id": "K1A6",
    "name": "MIDDLESBORO-BELL COUNTY AIRPORT",
    "state": "KY",
    "latitude": 36.611,
    "longitude": -83.738
  },
  {
    "id": "KAXS",
    "name": "ALTUS/QUARTZ MOUNTAIN REGIONAL AIRPORT",
    "state": "OK",
    "latitude": 34.699,
    "longitude": -99.338
  },
  {
    "id": "KCBE",
    "name": "GREATER CUMBERLAND REGIONAL AIRPORT",
    "state": "MD",
    "latitude": 39.6,
    "longitude": -78.767
  },
  {
    "id": "KCLK",
    "name": "CLINTON REGIONAL AIRPORT",
    "state": "OK",
    "latitude": 35.538,
    "longitude": -98.933
  },
  {
    "id": "KCUH",
    "name": "CUSHING MUNICIPAL AIRPORT",
    "state": "OK",
    "latitude": 35.95,
    "longitude": -96.773
  },
  {
    "id": "KRQO",
    "name": "EL RENO REGIONAL AIRPORT",
    "state": "OK",
    "latitude": 35.473,
    "longitude": -98.006
  },
  {
    "id": "KSRE",
    "name": "SEMINOLE MUNICIPAL AIRPORT",
    "state": "OK",
    "latitude": 35.275,
    "longitude": -96.675
  },
  {
    "id": "K0J4",
    "name": "FLORALA MUNI",
    "state": "AL",
    "latitude": 31.043,
    "longitude": -86.312
  },
  {
    "id": "KPRN",
    "name": "MAC CRENSHAW MEMORIAL AIRPORT",
    "state": "AL",
    "latitude": 31.847,
    "longitude": -86.614
  },
  {
    "id": "KEUF",
    "name": "WEEDON FIELD AIRPORT",
    "state": "AL",
    "latitude": 31.952,
    "longitude": -85.131
  },
  {
    "id": "KBOK",
    "name": "BROOKINGS AIRPORT",
    "state": "OR",
    "latitude": 42.074,
    "longitude": -124.29
  },
  {
    "id": "KPEX",
    "name": "PAYNESVILLE MUNICIPAL AP",
    "state": "MN",
    "latitude": 45.372,
    "longitude": -94.746
  },
  {
    "id": "KDVP",
    "name": "SLAYTON MUNICIPAL AIRPORT",
    "state": "MN",
    "latitude": 43.987,
    "longitude": -95.783
  },
  {
    "id": "KDIJ",
    "name": "DRIGGS-REED MEMORIAL AIRPORT",
    "state": "ID",
    "latitude": 43.743,
    "longitude": -111.098
  },
  {
    "id": "KHAI",
    "name": "HREE RIVERS MUNICIPAL DR HAINES AIRPORT",
    "state": "MI",
    "latitude": 41.96,
    "longitude": -85.593
  },
  {
    "id": "KPCM",
    "name": "PLANT CITY MUNICIPAL AIRPORT",
    "state": "FL",
    "latitude": 28.0,
    "longitude": -82.164
  },
  {
    "id": "KTPF",
    "name": "PETER O KNIGHT AIRPORT",
    "state": "FL",
    "latitude": 27.916,
    "longitude": -82.449
  },
  {
    "id": "KDRM",
    "name": "DRUMMOND ISLAND AIRPORT",
    "state": "MI",
    "latitude": 46.007,
    "longitude": -83.743
  },
  {
    "id": "K8A0",
    "name": "THE ALBERTVILLE MUNI ARPT-THOMAS J BRUMLIK FLD",
    "state": "AL",
    "latitude": 34.229,
    "longitude": -86.256
  },
  {
    "id": "KM19",
    "name": "NEWPORT MUNICIPAL AIRPORT",
    "state": "AR",
    "latitude": 35.633,
    "longitude": -91.167
  },
  {
    "id": "KUCP",
    "name": "NEW CASTLE MUNICIPAL AIRPORT",
    "state": "PA",
    "latitude": 41.033,
    "longitude": -80.417
  },
  {
    "id": "KEKQ",
    "name": "WAYNE COUNTY AIRPORT",
    "state": "KY",
    "latitude": 36.855,
    "longitude": -84.856
  },
  {
    "id": "KJKA",
    "name": "JACK EDWARDS AIRPORT",
    "state": "AL",
    "latitude": 30.291,
    "longitude": -87.672
  },
  {
    "id": "PAMK",
    "name": "ST MICHAEL AIRPORT",
    "state": "AK",
    "latitude": 63.49,
    "longitude": -162.11
  },
  {
    "id": "KNDZ",
    "name": "WHITING FIELD NAVAL AIR STATION-SOUTH",
    "state": "FL",
    "latitude": 30.697,
    "longitude": -87.021
  },
  {
    "id": "KW29",
    "name": "BAY BRIDGE AIRPORT",
    "state": "MD",
    "latitude": 38.967,
    "longitude": -76.333
  },
  {
    "id": "K0CO",
    "name": "BERTHOUD PASS",
    "state": "CO",
    "latitude": 39.8,
    "longitude": -105.766
  },
  {
    "id": "KBDH",
    "name": "WILLMAR MUNICIPAL AIRPORT JOHN L RICE FIELD",
    "state": "MN",
    "latitude": 45.117,
    "longitude": -95.133
  },
  {
    "id": "KPLU",
    "name": "PIERCE COUNTY AIRPORT THUN FIELD",
    "state": "WA",
    "latitude": 47.104,
    "longitude": -122.287
  },
  {
    "id": "KBEA",
    "name": "BEEVILLE MUNICIPAL AIRPORT",
    "state": "TX",
    "latitude": 28.35,
    "longitude": -97.717
  },
  {
    "id": "KHOE",
    "name": "HOMERVILLE AIRPORT",
    "state": "GA",
    "latitude": 31.056,
    "longitude": -82.767
  },
  {
    "id": "KHRX",
    "name": "HEREFORD MUNICIPAL AIRPORT",
    "state": "TX",
    "latitude": 34.85,
    "longitude": -102.333
  },
  {
    "id": "KADF",
    "name": "DEXTER B FLORENCE MEMORIAL FIELD AIRPORT",
    "state": "AR",
    "latitude": 34.1,
    "longitude": -93.066
  },
  {
    "id": "KPEZ",
    "name": "PLEASANTON MUNICIPAL AIRPORT",
    "state": "TX",
    "latitude": 28.95,
    "longitude": -98.517
  },
  {
    "id": "KUNI",
    "name": "OHIO UNIVERSITY AIRPORT SNYDER FIELD",
    "state": "OH",
    "latitude": 39.217,
    "longitude": -82.233
  },
  {
    "id": "KCCA",
    "name": "CLINTON MUNICIPAL AIRPORT",
    "state": "AR",
    "latitude": 35.6,
    "longitude": -92.45
  },
  {
    "id": "KCWC",
    "name": "KICKAPOO DOWNTOWN AIRPORT",
    "state": "TX",
    "latitude": 33.85,
    "longitude": -98.483
  },
  {
    "id": "KBTA",
    "name": "BLAIR MUNICIPAL AIRPORT",
    "state": "NE",
    "latitude": 41.412,
    "longitude": -96.109
  },
  {
    "id": "KDVO",
    "name": "GNOSS FIELD AIRPORT",
    "state": "CA",
    "latitude": 38.15,
    "longitude": -122.55
  },
  {
    "id": "KMJX",
    "name": "OCEAN COUNTY AIRPORT",
    "state": "NJ",
    "latitude": 39.928,
    "longitude": -74.292
  },
  {
    "id": "KMQS",
    "name": "CHESTER COUNTY GO CARLSON AIRPORT",
    "state": "PA",
    "latitude": 39.983,
    "longitude": -75.867
  },
  {
    "id": "KDZJ",
    "name": "BLAIRSVILLE AIRPORT",
    "state": "GA",
    "latitude": 34.85,
    "longitude": -83.983
  },
  {
    "id": "KAXX",
    "name": "ANGEL FIRE AIRPORT",
    "state": "NM",
    "latitude": 36.422,
    "longitude": -105.29
  },
  {
    "id": "KPRO",
    "name": "PERRY MUNICIPAL AIRPORT",
    "state": "IA",
    "latitude": 41.828,
    "longitude": -94.16
  },
  {
    "id": "K1M4",
    "name": "POSEY FIELD AIRPORT",
    "state": "AL",
    "latitude": 34.267,
    "longitude": -87.6
  },
  {
    "id": "K4I3",
    "name": "KNOX COUNTY AIRPORT",
    "state": "OH",
    "latitude": 40.333,
    "longitude": -82.517
  },
  {
    "id": "KFFX",
    "name": "FREMONT MUNICIPAL AIRPORT",
    "state": "MI",
    "latitude": 43.433,
    "longitude": -86.0
  },
  {
    "id": "K2K3",
    "name": "JOHNSON (STANTON CO MUNI)",
    "state": "KS",
    "latitude": 37.583,
    "longitude": -101.733
  },
  {
    "id": "KADT",
    "name": "ATWOOD-RAWLNS CO CTY CO AP",
    "state": "KS",
    "latitude": 39.84,
    "longitude": -101.042
  },
  {
    "id": "KCBK",
    "name": "SHALTZ FIELD AIRPORT",
    "state": "KS",
    "latitude": 39.428,
    "longitude": -101.046
  },
  {
    "id": "KEGT",
    "name": "WELLINGTON MUNI",
    "state": "KS",
    "latitude": 37.324,
    "longitude": -97.388
  },
  {
    "id": "KHQG",
    "name": "HUGOTON MUNI",
    "state": "KS",
    "latitude": 37.163,
    "longitude": -101.371
  },
  {
    "id": "KIDP",
    "name": "INDEPENDENT MUNICIPAL AIRPORT",
    "state": "KS",
    "latitude": 37.158,
    "longitude": -95.778
  },
  {
    "id": "KMPR",
    "name": "MCPHERSON",
    "state": "KS",
    "latitude": 38.352,
    "longitude": -97.691
  },
  {
    "id": "KNRN",
    "name": "NORTON MUNI",
    "state": "KS",
    "latitude": 39.85,
    "longitude": -99.895
  },
  {
    "id": "KOEL",
    "name": "OAKLEY MUNI",
    "state": "KS",
    "latitude": 39.11,
    "longitude": -100.816
  },
  {
    "id": "KPHG",
    "name": "PHILLIPSBURG MUNI",
    "state": "KS",
    "latitude": 39.736,
    "longitude": -99.317
  },
  {
    "id": "KPTS",
    "name": "ATKINSON MUNICIPAL AIRPORT",
    "state": "KS",
    "latitude": 37.45,
    "longitude": -94.733
  },
  {
    "id": "KSYF",
    "name": "CHEYENNE COUNTY MUNICIPAL AIRPORT",
    "state": "KS",
    "latitude": 39.767,
    "longitude": -101.8
  },
  {
    "id": "KTQK",
    "name": "SCOTT CITY MUNI",
    "state": "KS",
    "latitude": 38.474,
    "longitude": -100.885
  },
  {
    "id": "KULS",
    "name": "ULYSSES",
    "state": "KS",
    "latitude": 37.604,
    "longitude": -101.374
  },
  {
    "id": "KAAS",
    "name": "CAMPBELLVILLE / TAYLOR CO",
    "state": "KY",
    "latitude": 37.358,
    "longitude": -85.309
  },
  {
    "id": "KBRY",
    "name": "SAMUELS FLD / BARDSTOWN",
    "state": "KY",
    "latitude": 37.814,
    "longitude": -85.5
  },
  {
    "id": "KCEY",
    "name": "KYLE OAKLEY FIELD AIRPORT",
    "state": "KY",
    "latitude": 36.665,
    "longitude": -88.373
  },
  {
    "id": "KDVK",
    "name": "STUART POWELL FIELD AIRPORT",
    "state": "KY",
    "latitude": 37.578,
    "longitude": -84.77
  },
  {
    "id": "KDWU",
    "name": "ASHLAND RGNL",
    "state": "KY",
    "latitude": 38.555,
    "longitude": -82.738
  },
  {
    "id": "KEKX",
    "name": "ADDINGTON FLD",
    "state": "KY",
    "latitude": 37.686,
    "longitude": -85.925
  },
  {
    "id": "KFGX",
    "name": "FLEMING/MASON AIRPORT",
    "state": "KY",
    "latitude": 38.542,
    "longitude": -83.743
  },
  {
    "id": "KHVC",
    "name": "HOPKINSVILLE CHRISTIAN CO",
    "state": "KY",
    "latitude": 36.857,
    "longitude": -87.455
  },
  {
    "id": "KI39",
    "name": "MADISON AIRPORT",
    "state": "KY",
    "latitude": 37.633,
    "longitude": -84.333
  },
  {
    "id": "KIOB",
    "name": "MOUNT STERLING MONTGOMERY COUNTY AIRPORT",
    "state": "KY",
    "latitude": 38.067,
    "longitude": -83.983
  },
  {
    "id": "KCPF",
    "name": "WENDELL H FORD ARPT",
    "state": "KY",
    "latitude": 37.387,
    "longitude": -83.262
  },
  {
    "id": "KSJS",
    "name": "BIG SANDY REGIONAL AIRPORT",
    "state": "KY",
    "latitude": 37.751,
    "longitude": -82.637
  },
  {
    "id": "KPBX",
    "name": "PIKE CO HATCHER FLD",
    "state": "KY",
    "latitude": 37.562,
    "longitude": -82.566
  },
  {
    "id": "KBYL",
    "name": "WILLIAMSBURG (WHITLEY CO ARPT)",
    "state": "KY",
    "latitude": 36.8,
    "longitude": -84.2
  },
  {
    "id": "KBXA",
    "name": "GEORGE R CARR MEMORIAL AIR FIELD",
    "state": "LA",
    "latitude": 30.817,
    "longitude": -89.867
  },
  {
    "id": "KOPL",
    "name": "ST LANDRY PARISH AIRPORT AHART FIELD",
    "state": "LA",
    "latitude": 30.558,
    "longitude": -92.099
  },
  {
    "id": "K8B0",
    "name": "STEVEN A BEAN MUNI",
    "state": "ME",
    "latitude": 44.992,
    "longitude": -70.665
  },
  {
    "id": "KEVU",
    "name": "NORTHWEST MISSOURI RGNL",
    "state": "MO",
    "latitude": 40.353,
    "longitude": -94.915
  },
  {
    "id": "KHAE",
    "name": "HANNIBAL REGIONAL AIRPORT",
    "state": "MO",
    "latitude": 39.725,
    "longitude": -91.444
  },
  {
    "id": "KLBO",
    "name": "FLOYD W JONES LEBANON",
    "state": "MO",
    "latitude": 37.648,
    "longitude": -92.652
  },
  {
    "id": "KLRY",
    "name": "LAWRENCE SMITH MEM",
    "state": "MO",
    "latitude": 38.611,
    "longitude": -94.342
  },
  {
    "id": "KHFJ",
    "name": "MONETT MUNICIPAL AIRPORT",
    "state": "MO",
    "latitude": 36.9,
    "longitude": -94.017
  },
  {
    "id": "KMAW",
    "name": "MALDEN FAA AIRPORT",
    "state": "MO",
    "latitude": 36.6,
    "longitude": -89.983
  },
  {
    "id": "KMBY",
    "name": "OMAR N BRADLEY",
    "state": "MO",
    "latitude": 39.464,
    "longitude": -92.427
  },
  {
    "id": "KMHL",
    "name": "MARSHALL MEM MUNI",
    "state": "MO",
    "latitude": 39.096,
    "longitude": -93.203
  },
  {
    "id": "KMYJ",
    "name": "MEXICO MEM",
    "state": "MO",
    "latitude": 39.158,
    "longitude": -91.818
  },
  {
    "id": "KRAW",
    "name": "WARSAW MUNI",
    "state": "MO",
    "latitude": 38.347,
    "longitude": -93.345
  },
  {
    "id": "KSIK",
    "name": "SIKESTON MEM MUNI",
    "state": "MO",
    "latitude": 36.899,
    "longitude": -89.562
  },
  {
    "id": "KUUV",
    "name": "SULLIVAN RGNL",
    "state": "MO",
    "latitude": 38.233,
    "longitude": -91.164
  },
  {
    "id": "KGWR",
    "name": "GWINNER ROGER MELROE FIELD AIRPORT",
    "state": "ND",
    "latitude": 46.217,
    "longitude": -97.633
  },
  {
    "id": "KCDA",
    "name": "CALEDONIA COUNTY AIRPORT",
    "state": "VT",
    "latitude": 44.567,
    "longitude": -72.017
  },
  {
    "id": "KEFK",
    "name": "NEWPORT AP",
    "state": "VT",
    "latitude": 44.883,
    "longitude": -72.233
  },
  {
    "id": "KFSO",
    "name": "FRANKLIN COUNTY STATE AIRPORT",
    "state": "VT",
    "latitude": 44.933,
    "longitude": -73.1
  },
  {
    "id": "KFCI",
    "name": "CHESTERFIELD COUNTY AIRPORT",
    "state": "VA",
    "latitude": 37.4,
    "longitude": -77.517
  },
  {
    "id": "KPVG",
    "name": "HAMPTON ROADS EXECUTIVE AIRPORT",
    "state": "VA",
    "latitude": 36.783,
    "longitude": -76.45
  },
  {
    "id": "KXSA",
    "name": "TAPPAHANNOCK ESSEX COUNTY AIRPORT",
    "state": "VA",
    "latitude": 37.85,
    "longitude": -76.883
  },
  {
    "id": "KASN",
    "name": "TALLADEGA MUNI",
    "state": "AL",
    "latitude": 33.57,
    "longitude": -86.051
  },
  {
    "id": "KJFX",
    "name": "WALKER COUNTY AIRPORT BEVILL FIELD",
    "state": "AL",
    "latitude": 33.902,
    "longitude": -87.314
  },
  {
    "id": "KEKY",
    "name": "BESSEMER AIPORT",
    "state": "AL",
    "latitude": 33.313,
    "longitude": -86.926
  },
  {
    "id": "KSCD",
    "name": "MERKEL FLD SYLACAUGA MUNI",
    "state": "AL",
    "latitude": 33.172,
    "longitude": -86.306
  },
  {
    "id": "KBTN",
    "name": "BRITTON MUNI",
    "state": "SD",
    "latitude": 45.815,
    "longitude": -97.743
  },
  {
    "id": "KAFO",
    "name": "AFTON LINCOLN CO GEN BOYD L EDDINS FLD",
    "state": "WY",
    "latitude": 42.711,
    "longitude": -110.942
  },
  {
    "id": "KEMM",
    "name": "KEMMERER MUNICIPAL AIRPORT",
    "state": "WY",
    "latitude": 41.824,
    "longitude": -110.557
  },
  {
    "id": "KFBR",
    "name": "FORT BRIDGER AIRPORT",
    "state": "WY",
    "latitude": 41.393,
    "longitude": -110.406
  },
  {
    "id": "KPOY",
    "name": "POWELL MUNI",
    "state": "WY",
    "latitude": 44.867,
    "longitude": -108.793
  },
  {
    "id": "KSAA",
    "name": "SHIVELY FIELD AIRPORT",
    "state": "WY",
    "latitude": 41.444,
    "longitude": -106.828
  },
  {
    "id": "KDUB",
    "name": "DUBOIS MUNICIPAL AIRPORT",
    "state": "WY",
    "latitude": 43.548,
    "longitude": -109.69
  },
  {
    "id": "KAEJ",
    "name": "CENTRAL COLORADO REGIONAL AP",
    "state": "CO",
    "latitude": 38.698,
    "longitude": -106.07
  },
  {
    "id": "KAIB",
    "name": "HOPKINS FIELD AIRPORT",
    "state": "CO",
    "latitude": 38.239,
    "longitude": -108.563
  },
  {
    "id": "KAJZ",
    "name": "BLAKE FIELD AIRPORT",
    "state": "CO",
    "latitude": 38.783,
    "longitude": -108.067
  },
  {
    "id": "KANK",
    "name": "HARRIET ALEXANDER FIELD AIRPORT",
    "state": "CO",
    "latitude": 38.533,
    "longitude": -106.05
  },
  {
    "id": "KBDU",
    "name": "BOULDER MUNICIPAL AIRPORT",
    "state": "CO",
    "latitude": 40.033,
    "longitude": -105.217
  },
  {
    "id": "KEIK",
    "name": "ERIE MUNICIPAL AIRPORT",
    "state": "CO",
    "latitude": 40.017,
    "longitude": -105.05
  },
  {
    "id": "KFMM",
    "name": "FORT MORGAN MUNICIPAL AIRPORT",
    "state": "CO",
    "latitude": 40.333,
    "longitude": -103.8
  },
  {
    "id": "KGNB",
    "name": "GRANBY GRAND CO",
    "state": "CO",
    "latitude": 40.09,
    "longitude": -105.917
  },
  {
    "id": "KHEQ",
    "name": "HOLYOKE AIRPORT",
    "state": "CO",
    "latitude": 40.567,
    "longitude": -102.267
  },
  {
    "id": "KLMO",
    "name": "VANCE BRAND AIRPORT",
    "state": "CO",
    "latitude": 40.167,
    "longitude": -105.167
  },
  {
    "id": "KPSO",
    "name": "STEVENS FIELD AIRPORT",
    "state": "CO",
    "latitude": 37.283,
    "longitude": -107.05
  },
  {
    "id": "KUOX",
    "name": "OXFORD UNIV",
    "state": "MS",
    "latitude": 34.383,
    "longitude": -89.55
  },
  {
    "id": "KRYW",
    "name": "LAGO VISTA RUSTY ALLEN AIRPORT",
    "state": "TX",
    "latitude": 30.5,
    "longitude": -97.967
  },
  {
    "id": "KGWB",
    "name": "DE KALB COUNTY AIRPORT",
    "state": "IN",
    "latitude": 41.3,
    "longitude": -85.067
  },
  {
    "id": "KSTK",
    "name": "STERLING MUNICIPAL AIRPORT",
    "state": "CO",
    "latitude": 40.617,
    "longitude": -103.267
  },
  {
    "id": "KSNC",
    "name": "CHESTER AIRPORT",
    "state": "CT",
    "latitude": 41.384,
    "longitude": -72.506
  },
  {
    "id": "KCXP",
    "name": "CARSON AIRPORT",
    "state": "NV",
    "latitude": 39.183,
    "longitude": -119.733
  },
  {
    "id": "KMEV",
    "name": "MINDEN TAHOE AIRPORT",
    "state": "NV",
    "latitude": 39.0,
    "longitude": -119.751
  },
  {
    "id": "KJRB",
    "name": "PORT AUTH DOWNTN MANHATTAN WALL ST HEL",
    "state": "NY",
    "latitude": 40.701,
    "longitude": -74.009
  },
  {
    "id": "KELK",
    "name": "ELK CITY MUNICIPAL AP",
    "state": "OK",
    "latitude": 35.433,
    "longitude": -99.4
  },
  {
    "id": "KHHW",
    "name": "STAN STAMPER MUNICIPAL AIRPORT",
    "state": "OK",
    "latitude": 34.033,
    "longitude": -95.533
  },
  {
    "id": "KOWP",
    "name": "WILLIAM R POUGE MUNICIPAL AIRPORT",
    "state": "OK",
    "latitude": 36.175,
    "longitude": -96.152
  },
  {
    "id": "K36U",
    "name": "HEBER CITY / HEBER VALLEY MUNICIPAL AIRPORT",
    "state": "UT",
    "latitude": 40.482,
    "longitude": -111.429
  },
  {
    "id": "KBMC",
    "name": "BRIGHAM CITY AIRPORT",
    "state": "UT",
    "latitude": 41.552,
    "longitude": -112.062
  },
  {
    "id": "KFOM",
    "name": "FILLMORE MUNI",
    "state": "UT",
    "latitude": 38.967,
    "longitude": -112.367
  },
  {
    "id": "KKNB",
    "name": "KANAB MUNI",
    "state": "UT",
    "latitude": 37.011,
    "longitude": -112.531
  },
  {
    "id": "KTVY",
    "name": "BOLINDER FIELD TOOELE VALLEY",
    "state": "UT",
    "latitude": 40.612,
    "longitude": -112.351
  },
  {
    "id": "KTYQ",
    "name": "INDIANAPOLIS EXECUTIVE AIRPORT",
    "state": "IN",
    "latitude": 40.031,
    "longitude": -86.251
  },
  {
    "id": "KEDU",
    "name": "UNIVERSITY AIRPORT",
    "state": "CA",
    "latitude": 38.533,
    "longitude": -121.783
  },
  {
    "id": "KRFI",
    "name": "RUSK COUNTY AIRPORT",
    "state": "TX",
    "latitude": 32.15,
    "longitude": -94.85
  },
  {
    "id": "KBKD",
    "name": "STEPHENS COUNTY AIRPORT",
    "state": "TX",
    "latitude": 32.717,
    "longitude": -98.892
  },
  {
    "id": "KT89",
    "name": "LAJITAS INTL ARPT",
    "state": "TX",
    "latitude": 29.278,
    "longitude": -103.687
  },
  {
    "id": "KLDJ",
    "name": "LINDEN AIRPORT",
    "state": "NJ",
    "latitude": 40.617,
    "longitude": -74.25
  },
  {
    "id": "KAPY",
    "name": "ZAPATA COUNTY AIRPORT",
    "state": "TX",
    "latitude": 26.967,
    "longitude": -99.25
  },
  {
    "id": "KPVB",
    "name": "PLATTEVILLE MUNICIPAL AIRPORT",
    "state": "WI",
    "latitude": 42.683,
    "longitude": -90.45
  },
  {
    "id": "KIYA",
    "name": "ABBEVILLE CHRIS CRUSTA MEMORIAL AIRPORT",
    "state": "LA",
    "latitude": 29.976,
    "longitude": -92.084
  },
  {
    "id": "KEZS",
    "name": "SHAWANO MUNICIPAL AIRPORT",
    "state": "WI",
    "latitude": 44.783,
    "longitude": -88.55
  },
  {
    "id": "KCQF",
    "name": "H L SONNY CALLAHAN AIRPORT",
    "state": "AL",
    "latitude": 30.46,
    "longitude": -87.877
  },
  {
    "id": "KOXI",
    "name": "STARKE COUNTY AIRPORT",
    "state": "IN",
    "latitude": 41.333,
    "longitude": -86.667
  },
  {
    "id": "KMCJ",
    "name": "HOUSTON DUNN HELISTOP",
    "state": "TX",
    "latitude": 29.717,
    "longitude": -95.383
  },
  {
    "id": "KEOE",
    "name": "NEWBERRY COUNTY AIRPORT",
    "state": "SC",
    "latitude": 34.3,
    "longitude": -81.633
  },
  {
    "id": "KLUX",
    "name": "LAURENS COUNTY AIRPORT",
    "state": "SC",
    "latitude": 34.5,
    "longitude": -81.95
  },
  {
    "id": "KMKS",
    "name": "BERKELEY COUNTY AIRPORT",
    "state": "SC",
    "latitude": 33.183,
    "longitude": -80.033
  },
  {
    "id": "KDCM",
    "name": "CHESTER CATAWBA REGIONAL AIRPORT",
    "state": "SC",
    "latitude": 34.783,
    "longitude": -81.2
  },
  {
    "id": "KAIK",
    "name": "AIKEN MUNICIPAL AIRPORT",
    "state": "SC",
    "latitude": 33.65,
    "longitude": -81.683
  },
  {
    "id": "KBNL",
    "name": "BARNWELL REGIONAL AIRPORT",
    "state": "SC",
    "latitude": 33.25,
    "longitude": -81.383
  },
  {
    "id": "KCDN",
    "name": "WOODWARD FIELD AIRPORT",
    "state": "SC",
    "latitude": 34.283,
    "longitude": -80.567
  },
  {
    "id": "KCKI",
    "name": "WILLIAMSBURG REGIONAL AIRPORT",
    "state": "SC",
    "latitude": 33.717,
    "longitude": -79.85
  },
  {
    "id": "KCQW",
    "name": "CHERAW MUNICIPAL LYNCH BELLINGER FIELD",
    "state": "SC",
    "latitude": 34.717,
    "longitude": -79.95
  },
  {
    "id": "KJZI",
    "name": "CHARLESTON EXECUTIVE AIRPORT",
    "state": "SC",
    "latitude": 32.701,
    "longitude": -80.003
  },
  {
    "id": "KLKR",
    "name": "LANCASTER COUNTY MC WHIRTER FIELD AIRPORT",
    "state": "SC",
    "latitude": 34.717,
    "longitude": -80.85
  },
  {
    "id": "KMAO",
    "name": "MARION COUNTY AIRPORT",
    "state": "SC",
    "latitude": 34.181,
    "longitude": -79.335
  },
  {
    "id": "KRBW",
    "name": "LOWCOUNTRY REGIONAL AIRPORT",
    "state": "SC",
    "latitude": 32.917,
    "longitude": -80.633
  },
  {
    "id": "KSMS",
    "name": "SUMTER AIRPORT",
    "state": "SC",
    "latitude": 34.0,
    "longitude": -80.367
  },
  {
    "id": "KARW",
    "name": "BEAUFORT COUNTY AIRPORT",
    "state": "SC",
    "latitude": 32.412,
    "longitude": -80.634
  },
  {
    "id": "KHYW",
    "name": "CONWAY HORRY COUNTY AIRPORT",
    "state": "SC",
    "latitude": 33.828,
    "longitude": -79.122
  },
  {
    "id": "KLHM",
    "name": "LINCOLN REGIONAL AIRPORT KARL HARDER FIELD",
    "state": "CA",
    "latitude": 38.909,
    "longitude": -121.351
  },
  {
    "id": "KO22",
    "name": "COLUMBIA AIRPORT",
    "state": "CA",
    "latitude": 38.033,
    "longitude": -120.417
  },
  {
    "id": "KBBG",
    "name": "BRANSON AIRPORT",
    "state": "MO",
    "latitude": 36.533,
    "longitude": -93.2
  },
  {
    "id": "KTME",
    "name": "HOUSTON EXECUTIVE AIRPORT",
    "state": "TX",
    "latitude": 29.8,
    "longitude": -95.9
  },
  {
    "id": "KFEW",
    "name": "FRANCIS E WARREN AFB HELIPORT",
    "state": "WY",
    "latitude": 41.133,
    "longitude": -104.867
  },
  {
    "id": "KMDS",
    "name": "MADISON MUNICIPAL AIRPORT",
    "state": "SD",
    "latitude": 44.016,
    "longitude": -97.086
  },
  {
    "id": "KBKN",
    "name": "BLACKWELL TONKAWA MUNICIPAL AIRPORT",
    "state": "OK",
    "latitude": 36.75,
    "longitude": -97.35
  },
  {
    "id": "KBPC",
    "name": "PAMPA MESA VISTA AIRPORT",
    "state": "TX",
    "latitude": 35.883,
    "longitude": -101.033
  },
  {
    "id": "KGZL",
    "name": "STIGLER REGIONAL AIRPORT",
    "state": "OK",
    "latitude": 35.283,
    "longitude": -95.1
  },
  {
    "id": "KRCE",
    "name": "CLARENCE E PAGE MUNICIPAL AIRPORT",
    "state": "OK",
    "latitude": 35.483,
    "longitude": -97.817
  },
  {
    "id": "KIKW",
    "name": "JACK BARSTOW AIRPORT",
    "state": "MI",
    "latitude": 43.663,
    "longitude": -84.261
  },
  {
    "id": "KBBP",
    "name": "MARLBORO COUNTY JETPORT H E AVENT FIELD",
    "state": "SC",
    "latitude": 34.617,
    "longitude": -79.733
  },
  {
    "id": "KDYB",
    "name": "SUMMERVILLE AIRPORT",
    "state": "SC",
    "latitude": 33.063,
    "longitude": -80.279
  },
  {
    "id": "KHVS",
    "name": "HARTSVILLE REGIONAL AIRPORT",
    "state": "SC",
    "latitude": 34.4,
    "longitude": -80.117
  },
  {
    "id": "KFDW",
    "name": "FAIRFIELD COUNTY AIRPORT",
    "state": "SC",
    "latitude": 34.315,
    "longitude": -81.109
  },
  {
    "id": "KCMR",
    "name": "H A CLARK MEMORIAL FIELD AIRPORT",
    "state": "AZ",
    "latitude": 35.3,
    "longitude": -112.2
  },
  {
    "id": "KGLY",
    "name": "CLINTON MEMORIAL AIRPORT",
    "state": "MO",
    "latitude": 38.35,
    "longitude": -93.683
  },
  {
    "id": "KAXH",
    "name": "HOUSTON SOUTHWEST AIRPORT",
    "state": "TX",
    "latitude": 29.5,
    "longitude": -95.477
  },
  {
    "id": "KBDN",
    "name": "BEND MUNICIPAL AIRPORT",
    "state": "OR",
    "latitude": 44.095,
    "longitude": -121.2
  },
  {
    "id": "KDZB",
    "name": "HORSESHOE BAY RESORT AIRPORT",
    "state": "TX",
    "latitude": 30.533,
    "longitude": -98.367
  },
  {
    "id": "KSHM",
    "name": "SCHRIEVER AFB",
    "state": "CO",
    "latitude": 38.8,
    "longitude": -104.517
  },
  {
    "id": "KCWN",
    "name": "CHEYENNE MTN AS",
    "state": "CO",
    "latitude": 38.75,
    "longitude": -104.85
  },
  {
    "id": "KFXY",
    "name": "FOREST CITY MUNICIPAL AIRPORT",
    "state": "IA",
    "latitude": 43.235,
    "longitude": -93.624
  },
  {
    "id": "KBXK",
    "name": "BUCKEYE MUNICIPAL AIRPORT",
    "state": "AZ",
    "latitude": 33.417,
    "longitude": -112.683
  },
  {
    "id": "KPVF",
    "name": "PLACERVILLE AIRPORT",
    "state": "CA",
    "latitude": 38.717,
    "longitude": -120.75
  },
  {
    "id": "KHAF",
    "name": "HALF MOON BAY AIRPORT",
    "state": "CA",
    "latitude": 37.513,
    "longitude": -122.501
  },
  {
    "id": "KLZZ",
    "name": "LAMPASAS AIRPORT",
    "state": "TX",
    "latitude": 31.106,
    "longitude": -98.196
  },
  {
    "id": "KEDC",
    "name": "AUSTIN EXECUTIVE AIRPORT",
    "state": "TX",
    "latitude": 30.395,
    "longitude": -97.567
  },
  {
    "id": "KIXA",
    "name": "HALIFAX NORTHAMPTON REGIONAL AIRPORT",
    "state": "NC",
    "latitude": 36.33,
    "longitude": -77.635
  },
  {
    "id": "KMRT",
    "name": "UNION COUNTY AIRPORT",
    "state": "OH",
    "latitude": 40.225,
    "longitude": -83.352
  },
  {
    "id": "KBAN",
    "name": "BRIDGEPORT SONORA JUNCTION",
    "state": "CA",
    "latitude": 38.356,
    "longitude": -119.519
  },
  {
    "id": "KCGC",
    "name": "CRYSTAL RIVER AIRPORT",
    "state": "FL",
    "latitude": 28.867,
    "longitude": -82.567
  },
  {
    "id": "KOZA",
    "name": "OZONA MUNICIPAL AIRPORT",
    "state": "TX",
    "latitude": 30.735,
    "longitude": -101.203
  },
  {
    "id": "KGBK",
    "name": "MAGNOLIA OIL PLATFORM",
    "state": "LA",
    "latitude": 27.2,
    "longitude": -92.2
  },
  {
    "id": "KGUL",
    "name": "GUNNISON OIL PLATFORM",
    "state": "TX",
    "latitude": 27.3,
    "longitude": -93.533
  },
  {
    "id": "KJES",
    "name": "JESUP WAYNE COUNTY AIRPORT",
    "state": "GA",
    "latitude": 31.554,
    "longitude": -81.883
  },
  {
    "id": "KFIN",
    "name": "FLAGLER COUNTY EXECUTIVE AIRPORT",
    "state": "FL",
    "latitude": 29.467,
    "longitude": -81.206
  },
  {
    "id": "KCTJ",
    "name": "WEST GEORGIA REGIONAL AIRPORT O V GRAY FIELD",
    "state": "GA",
    "latitude": 33.633,
    "longitude": -85.15
  },
  {
    "id": "KCPU",
    "name": "CALAVERAS CO MAURY RASMUSSEN FLD",
    "state": "CA",
    "latitude": 38.146,
    "longitude": -120.648
  },
  {
    "id": "KEAN",
    "name": "PHIFER AFLD",
    "state": "WY",
    "latitude": 42.05,
    "longitude": -104.933
  },
  {
    "id": "KHMT",
    "name": "HEMET RYAN",
    "state": "CA",
    "latitude": 33.733,
    "longitude": -117.017
  },
  {
    "id": "KO26",
    "name": "LONE PINE",
    "state": "CA",
    "latitude": 36.588,
    "longitude": -118.052
  },
  {
    "id": "KDMW",
    "name": "CARROLL CO RGNL/JJACK B POAGE FIELD AIRPORT",
    "state": "MD",
    "latitude": 39.608,
    "longitude": -77.008
  },
  {
    "id": "KI75",
    "name": "OSCEOLA MUNICIPAL AIRPORT",
    "state": "IA",
    "latitude": 41.052,
    "longitude": -93.689
  },
  {
    "id": "KI43",
    "name": "JAMES A. RHODES AIRPORT",
    "state": "OH",
    "latitude": 38.981,
    "longitude": -82.578
  },
  {
    "id": "KNJW",
    "name": "RANGE B",
    "state": "MS",
    "latitude": 32.8,
    "longitude": -88.833
  },
  {
    "id": "KOWX",
    "name": "PUTNAM COUNTY AIRPORT",
    "state": "OH",
    "latitude": 41.036,
    "longitude": -83.982
  },
  {
    "id": "KTMA",
    "name": "HENRY TIFT MYERS AIRPORT",
    "state": "GA",
    "latitude": 31.429,
    "longitude": -83.489
  },
  {
    "id": "KVES",
    "name": "DARKE COUNTY AIRPORT",
    "state": "OH",
    "latitude": 40.204,
    "longitude": -84.532
  },
  {
    "id": "KPUJ",
    "name": "PAULDING NORTHWEST ATLANTA AIRPORT",
    "state": "GA",
    "latitude": 33.912,
    "longitude": -84.941
  },
  {
    "id": "KBRG",
    "name": "BELEN RGNL ARPT",
    "state": "NM",
    "latitude": 34.646,
    "longitude": -106.836
  },
  {
    "id": "KBQX",
    "name": "BRAZOS 451 OILP",
    "state": "TX",
    "latitude": 28.5,
    "longitude": -95.716
  },
  {
    "id": "KMAN",
    "name": "NAMPA MUNICIPAL AIRPORT",
    "state": "ID",
    "latitude": 43.581,
    "longitude": -116.523
  },
  {
    "id": "KECP",
    "name": "NORTHWEST FLORIDA BEACHES INTL ARPT",
    "state": "FL",
    "latitude": 30.349,
    "longitude": -85.788
  },
  {
    "id": "KRCR",
    "name": "FULTON COUNTY AIRPORT",
    "state": "IN",
    "latitude": 41.066,
    "longitude": -86.182
  },
  {
    "id": "K46D",
    "name": "CARRINGTON MUNICIPAL AIRPORT",
    "state": "ND",
    "latitude": 47.451,
    "longitude": -99.151
  },
  {
    "id": "KTVI",
    "name": "THOMASVILLE REGIONAL AIRPORT",
    "state": "GA",
    "latitude": 30.902,
    "longitude": -83.881
  },
  {
    "id": "KMNE",
    "name": "MINDEN AIRPORT",
    "state": "LA",
    "latitude": 32.646,
    "longitude": -93.298
  },
  {
    "id": "KBVU",
    "name": "BOULDER MUNICIPAL AIRPORT",
    "state": "NV",
    "latitude": 35.947,
    "longitude": -114.861
  },
  {
    "id": "KFTN",
    "name": "FAITH RANCH AIRPORT",
    "state": "TX",
    "latitude": 28.209,
    "longitude": -100.019
  },
  {
    "id": "KLQK",
    "name": "PICKENS COUNTY AIRPORT",
    "state": "SC",
    "latitude": 34.817,
    "longitude": -82.7
  },
  {
    "id": "KVAF",
    "name": "BOOMVANG SPUR OIL PLATFORM",
    "state": "",
    "latitude": 27.35,
    "longitude": -94.633
  },
  {
    "id": "KEHY",
    "name": "ELK MOUNTAIN",
    "state": "WY",
    "latitude": 41.733,
    "longitude": -106.467
  },
  {
    "id": "KNUW",
    "name": "WHIDBEY ISLAND NAS",
    "state": "WA",
    "latitude": 48.35,
    "longitude": -122.667
  },
  {
    "id": "KHRF",
    "name": "RAVALLI COUNTY AIRPORT",
    "state": "MT",
    "latitude": 46.255,
    "longitude": -114.125
  },
  {
    "id": "K0VG",
    "name": "LEE COUNTY AIRPORT",
    "state": "VA",
    "latitude": 36.654,
    "longitude": -83.218
  },
  {
    "id": "KSTF",
    "name": "GEORGE M BRYAN AIRPORT",
    "state": "MS",
    "latitude": 33.433,
    "longitude": -88.849
  },
  {
    "id": "KCOM",
    "name": "COLEMAN MUNICIPAL AIRPORT",
    "state": "TX",
    "latitude": 31.841,
    "longitude": -99.404
  },
  {
    "id": "KLUG",
    "name": "ELLINGTON",
    "state": "TN",
    "latitude": 35.507,
    "longitude": -86.804
  },
  {
    "id": "KLUL",
    "name": "HESLER NOBLE FLD",
    "state": "MS",
    "latitude": 31.673,
    "longitude": -89.172
  },
  {
    "id": "KLVL",
    "name": "LAWRENCEVILLE BRUNSWICK MUNI",
    "state": "VA",
    "latitude": 36.773,
    "longitude": -77.794
  },
  {
    "id": "KLXY",
    "name": "MEXIA LIMESTONE COUNTY AIRPORT",
    "state": "TX",
    "latitude": 31.641,
    "longitude": -96.514
  },
  {
    "id": "KLYO",
    "name": "LYONS RICE CO MUNI",
    "state": "KS",
    "latitude": 38.343,
    "longitude": -98.227
  },
  {
    "id": "KJVW",
    "name": "JOHN BELL WILLIAMS AIRPORT",
    "state": "MS",
    "latitude": 32.304,
    "longitude": -90.411
  },
  {
    "id": "K4F2",
    "name": "PANOLA CO SHARPE FLD",
    "state": "TX",
    "latitude": 32.176,
    "longitude": -94.299
  },
  {
    "id": "K4M3",
    "name": "CARLISLE MUNI",
    "state": "AR",
    "latitude": 34.808,
    "longitude": -91.712
  },
  {
    "id": "K4R5",
    "name": "MADELINE ISLAND",
    "state": "WI",
    "latitude": 46.789,
    "longitude": -90.759
  },
  {
    "id": "KJSY",
    "name": "JOSEPH STATE",
    "state": "OR",
    "latitude": 45.36,
    "longitude": -117.254
  },
  {
    "id": "KRTS",
    "name": "RENO STEAD AIRPORT",
    "state": "NV",
    "latitude": 39.667,
    "longitude": -119.876
  },
  {
    "id": "K4V1",
    "name": "SPANISH PEAKS",
    "state": "CO",
    "latitude": 37.697,
    "longitude": -104.785
  },
  {
    "id": "K4V9",
    "name": "ANTELOPE CO",
    "state": "NE",
    "latitude": 42.112,
    "longitude": -98.039
  },
  {
    "id": "KFLY",
    "name": "MEADOW LAKE AIRPORT",
    "state": "CO",
    "latitude": 38.946,
    "longitude": -104.57
  },
  {
    "id": "K06D",
    "name": "ROLLA MUNICIPAL AIRPORT",
    "state": "ND",
    "latitude": 48.884,
    "longitude": -99.621
  },
  {
    "id": "K20U",
    "name": "BEACH AIRPORT",
    "state": "ND",
    "latitude": 46.925,
    "longitude": -103.982
  },
  {
    "id": "K2C8",
    "name": "CAVALIER MUNICIPAL AIRPORT",
    "state": "ND",
    "latitude": 48.784,
    "longitude": -97.632
  },
  {
    "id": "K4A6",
    "name": "SCOTTSBORO MUNICIPAL AIRPORT WORD FIELD",
    "state": "AL",
    "latitude": 34.689,
    "longitude": -86.006
  },
  {
    "id": "K9D7",
    "name": "CANDO MUNICIPAL AIRPORT",
    "state": "ND",
    "latitude": 48.48,
    "longitude": -99.236
  },
  {
    "id": "KBCK",
    "name": "BLACK RIVER FALLS AREA AIRPORT",
    "state": "WI",
    "latitude": 44.251,
    "longitude": -90.855
  },
  {
    "id": "KD50",
    "name": "CROSBY MUNICIPAL AIRPORT",
    "state": "ND",
    "latitude": 48.929,
    "longitude": -103.297
  },
  {
    "id": "KD60",
    "name": "TIOGA MUNICIPAL AIRPORT",
    "state": "ND",
    "latitude": 48.381,
    "longitude": -102.898
  },
  {
    "id": "KETC",
    "name": "TARBORO EDGECOMBE AIRPORT",
    "state": "NC",
    "latitude": 35.937,
    "longitude": -77.547
  },
  {
    "id": "KGAF",
    "name": "HUTSON FIELD AIRPORT",
    "state": "ND",
    "latitude": 48.405,
    "longitude": -97.371
  },
  {
    "id": "KHZE",
    "name": "MERCER COUNTY REGIONAL AIRPORT",
    "state": "ND",
    "latitude": 47.29,
    "longitude": -101.581
  },
  {
    "id": "KRUG",
    "name": "RUGBY MUNICIPAL AIRPORT",
    "state": "ND",
    "latitude": 48.39,
    "longitude": -100.024
  },
  {
    "id": "KS25",
    "name": "WATFORD CITY MUNICIPAL AIRPORT",
    "state": "ND",
    "latitude": 47.796,
    "longitude": -103.254
  },
  {
    "id": "KVER",
    "name": "JESSE VIERTEL MEMORIAL AIRPORT",
    "state": "MO",
    "latitude": 38.947,
    "longitude": -92.683
  },
  {
    "id": "KY19",
    "name": "MANDAN MUNICIPAL AIRPORT",
    "state": "ND",
    "latitude": 46.768,
    "longitude": -100.894
  },
  {
    "id": "KD25",
    "name": "MANITOWISH WATERS AIRPORT",
    "state": "WI",
    "latitude": 46.117,
    "longitude": -89.883
  },
  {
    "id": "KD57",
    "name": "GLEN ULLIN REGIONAL",
    "state": "ND",
    "latitude": 46.813,
    "longitude": -101.86
  },
  {
    "id": "KD73",
    "name": "MONROE WALTON CO",
    "state": "GA",
    "latitude": 33.782,
    "longitude": -83.693
  },
  {
    "id": "KD95",
    "name": "DUPONT LAPEER AIRPORT",
    "state": "MI",
    "latitude": 43.067,
    "longitude": -83.267
  },
  {
    "id": "KDCY",
    "name": "DAVIESS COUNTY AIRPORT",
    "state": "IN",
    "latitude": 38.7,
    "longitude": -87.13
  },
  {
    "id": "KDED",
    "name": "DELAND MUNICIPAL AIRPORT SIDNEY H TAYLOR FIELD",
    "state": "FL",
    "latitude": 29.067,
    "longitude": -81.283
  },
  {
    "id": "KJAU",
    "name": "CAMPBELL CO",
    "state": "TN",
    "latitude": 36.335,
    "longitude": -84.162
  },
  {
    "id": "K08D",
    "name": "STANLEY MUNICIPAL AIRPORT",
    "state": "ND",
    "latitude": 48.301,
    "longitude": -102.406
  },
  {
    "id": "KBAC",
    "name": "BARNES COUNTY MUNICIPAL AIRPORT",
    "state": "ND",
    "latitude": 46.942,
    "longitude": -98.018
  },
  {
    "id": "KVOA",
    "name": "VIOSCA KNOLL 768 OIL PLATFORM",
    "state": "AL",
    "latitude": 29.233,
    "longitude": -87.783
  },
  {
    "id": "KGHB",
    "name": "SALSA",
    "state": "LA",
    "latitude": 27.833,
    "longitude": -91.983
  },
  {
    "id": "KGRY",
    "name": "GREEN CANYON 338",
    "state": "LA",
    "latitude": 27.63,
    "longitude": -90.45
  },
  {
    "id": "K65S",
    "name": "BOUNDARY COUNTY AIRPORT",
    "state": "ID",
    "latitude": 48.726,
    "longitude": -116.295
  },
  {
    "id": "KCRX",
    "name": "ROSCOE TURNER AIRPORT",
    "state": "MS",
    "latitude": 34.915,
    "longitude": -88.604
  },
  {
    "id": "KATP",
    "name": "ATLANTIS OIL PLATFORM",
    "state": "LA",
    "latitude": 27.2,
    "longitude": -90.033
  },
  {
    "id": "KBMT",
    "name": "BEAUMONT MUNICIPAL AIRPORT",
    "state": "TX",
    "latitude": 30.071,
    "longitude": -94.216
  },
  {
    "id": "KCKM",
    "name": "FLETCHER FIELD AIRPORT",
    "state": "MS",
    "latitude": 34.3,
    "longitude": -90.512
  },
  {
    "id": "KDLZ",
    "name": "DELAWARE MUNICIPAL JIM MOORE FIELD AIRPORT",
    "state": "OH",
    "latitude": 40.28,
    "longitude": -83.115
  },
  {
    "id": "KUBE",
    "name": "CUMERLAND MUNICIPAL AIRPORT",
    "state": "WI",
    "latitude": 45.506,
    "longitude": -91.981
  },
  {
    "id": "K1R7",
    "name": "BROOKHAVEN LINCOLN COUNTY AIRPORT",
    "state": "MS",
    "latitude": 31.606,
    "longitude": -90.409
  },
  {
    "id": "K7L2",
    "name": "LINTON MUNICIPAL AIRPORT",
    "state": "ND",
    "latitude": 46.218,
    "longitude": -100.245
  },
  {
    "id": "KAHQ",
    "name": "WAHOO MUNICIPAL AIRPORT",
    "state": "NE",
    "latitude": 41.233,
    "longitude": -96.6
  },
  {
    "id": "KASL",
    "name": "HARRISON COUNTY AIRPORT",
    "state": "TX",
    "latitude": 32.521,
    "longitude": -94.308
  },
  {
    "id": "KEDJ",
    "name": "BELLEFONTAINE REGIONAL AIRPORT",
    "state": "OH",
    "latitude": 40.367,
    "longitude": -83.817
  },
  {
    "id": "KFHB",
    "name": "FERNANDINA BEACH MUNICIPAL AIRPORT",
    "state": "FL",
    "latitude": 30.617,
    "longitude": -81.467
  },
  {
    "id": "KACJ",
    "name": "JIMMY CARTER REGIONAL AIRPORT",
    "state": "GA",
    "latitude": 32.11,
    "longitude": -84.189
  },
  {
    "id": "KH21",
    "name": "CAMDENTON MEMORIAL AIRPORT",
    "state": "MO",
    "latitude": 37.974,
    "longitude": -92.691
  },
  {
    "id": "KSBO",
    "name": "EAST GEORGIA REGIONAL AIRPORT",
    "state": "GA",
    "latitude": 32.609,
    "longitude": -82.37
  },
  {
    "id": "KGXA",
    "name": "GRAY BUTTE FLD",
    "state": "CA",
    "latitude": 34.564,
    "longitude": -117.675
  },
  {
    "id": "KHHV",
    "name": "ALAMINOS CANYON",
    "state": "TX",
    "latitude": 26.933,
    "longitude": -94.683
  },
  {
    "id": "KGGP",
    "name": "LOGANSPORT CASS COUNTY AIRPORT",
    "state": "IN",
    "latitude": 40.711,
    "longitude": -86.375
  },
  {
    "id": "KEZM",
    "name": "HEART OF GEORGIA REGIONAL AIRPORT",
    "state": "GA",
    "latitude": 32.214,
    "longitude": -83.128
  },
  {
    "id": "KTDR",
    "name": "TYNDALL DRONE RUNWAY",
    "state": "FL",
    "latitude": 30.033,
    "longitude": -85.533
  },
  {
    "id": "KDYS",
    "name": "DYESS AIR FORCE BASE",
    "state": "TX",
    "latitude": 32.433,
    "longitude": -99.85
  },
  {
    "id": "K6A2",
    "name": "GRIFFIN SPALDING COUNTY AIRPORT",
    "state": "GA",
    "latitude": 33.227,
    "longitude": -84.275
  },
  {
    "id": "KHZR",
    "name": "FALSE RIVER REGIONAL AIRPORT",
    "state": "LA",
    "latitude": 30.718,
    "longitude": -91.479
  },
  {
    "id": "K5W8",
    "name": "SILER CITY MUNICIPAL AIRPORT",
    "state": "NC",
    "latitude": 35.704,
    "longitude": -79.504
  },
  {
    "id": "KBGF",
    "name": "WINCHESTER MUNICIPAL AIRPORT",
    "state": "TN",
    "latitude": 35.178,
    "longitude": -86.066
  },
  {
    "id": "KLSB",
    "name": "LORDSBURG MUNICIPAL AIRPORT",
    "state": "NM",
    "latitude": 32.333,
    "longitude": -108.691
  },
  {
    "id": "K1JW",
    "name": "JULIET (PEETZ)",
    "state": "CO",
    "latitude": 40.967,
    "longitude": -103.2
  },
  {
    "id": "K1KW",
    "name": "KILO (DIX)",
    "state": "NE",
    "latitude": 41.133,
    "longitude": -103.483
  },
  {
    "id": "K1LW",
    "name": "LIMA (GROVER)",
    "state": "CO",
    "latitude": 40.917,
    "longitude": -103.7
  },
  {
    "id": "K1MW",
    "name": "MIKE (HAXTUN)",
    "state": "CO",
    "latitude": 40.7,
    "longitude": -103.483
  },
  {
    "id": "K1NW",
    "name": "NOVEMBER (GROVER)",
    "state": "CO",
    "latitude": 40.633,
    "longitude": -103.833
  },
  {
    "id": "K1OW",
    "name": "OSCAR (GROVER)",
    "state": "CO",
    "latitude": 40.883,
    "longitude": -104.0
  },
  {
    "id": "K1AM",
    "name": "ALPHA (RAYNESFORD)",
    "state": "MT",
    "latitude": 47.283,
    "longitude": -110.8
  },
  {
    "id": "K1BM",
    "name": "BRAVO (GEYSER)",
    "state": "MT",
    "latitude": 47.283,
    "longitude": -110.367
  },
  {
    "id": "K1CM",
    "name": "CHARLIE (STANFORD)",
    "state": "MT",
    "latitude": 47.1,
    "longitude": -110.167
  },
  {
    "id": "K1DM",
    "name": "DELTA (DENTON)",
    "state": "MT",
    "latitude": 47.383,
    "longitude": -109.817
  },
  {
    "id": "K1EM",
    "name": "ECHO (WINIFRED)",
    "state": "MT",
    "latitude": 47.45,
    "longitude": -109.417
  },
  {
    "id": "K1FM",
    "name": "FOXTROT (AUGUSTA)",
    "state": "MT",
    "latitude": 47.6,
    "longitude": -112.317
  },
  {
    "id": "K1GM",
    "name": "GOLF (SIMMS)",
    "state": "MT",
    "latitude": 47.333,
    "longitude": -112.1
  },
  {
    "id": "K1HM",
    "name": "HOTEL (FAIRFIELD)",
    "state": "MT",
    "latitude": 47.7,
    "longitude": -111.95
  },
  {
    "id": "K1IM",
    "name": "INDIA (ULM)",
    "state": "MT",
    "latitude": 47.317,
    "longitude": -111.467
  },
  {
    "id": "K1JM",
    "name": "JULIE (POWER)",
    "state": "MT",
    "latitude": 47.75,
    "longitude": -111.55
  },
  {
    "id": "K1KM",
    "name": "KILO (HARLOWTOWN)",
    "state": "MT",
    "latitude": 46.45,
    "longitude": -109.8
  },
  {
    "id": "K1MM",
    "name": "MIKE (MOORE)",
    "state": "MT",
    "latitude": 47.017,
    "longitude": -109.633
  },
  {
    "id": "K1NM",
    "name": "NOVEMBER (GRASS RANGE)",
    "state": "MT",
    "latitude": 47.067,
    "longitude": -109.033
  },
  {
    "id": "K1OM",
    "name": "OSCAR (ROY)",
    "state": "MT",
    "latitude": 47.333,
    "longitude": -108.933
  },
  {
    "id": "KPPO",
    "name": "LA PORTE MUNICIPAL AIRPORT",
    "state": "IN",
    "latitude": 41.572,
    "longitude": -86.735
  },
  {
    "id": "KTHA",
    "name": "TULLAHOMA REGIONAL AIRPORT WILLIAM NORTHERN FIELD",
    "state": "TN",
    "latitude": 35.38,
    "longitude": -86.246
  },
  {
    "id": "KFZG",
    "name": "FITZGERALD MUNICIPAL AIRPORT",
    "state": "GA",
    "latitude": 31.684,
    "longitude": -83.27
  },
  {
    "id": "KT35",
    "name": "CAMERON MUNICIPAL AIRPORT",
    "state": "TX",
    "latitude": 30.879,
    "longitude": -96.971
  },
  {
    "id": "KAZE",
    "name": "HAZLEHURST AIRPORT",
    "state": "GA",
    "latitude": 31.885,
    "longitude": -82.647
  },
  {
    "id": "KTBX",
    "name": "BOYSEN THERMOPOL",
    "state": "WY",
    "latitude": 43.467,
    "longitude": -108.389
  },
  {
    "id": "KMKY",
    "name": "MARCO ISLAND",
    "state": "FL",
    "latitude": 25.995,
    "longitude": -81.673
  },
  {
    "id": "KZPH",
    "name": "ZEPHYRHILLS MUNICIPAL AIRPORT",
    "state": "FL",
    "latitude": 28.228,
    "longitude": -82.156
  },
  {
    "id": "KF44",
    "name": "ATHENS MUNI",
    "state": "TX",
    "latitude": 32.164,
    "longitude": -95.828
  },
  {
    "id": "KF46",
    "name": "RALPH M HALL ROCKWALL MUNICIPAL AIRPORT",
    "state": "TX",
    "latitude": 32.931,
    "longitude": -96.435
  },
  {
    "id": "KGPH",
    "name": "MIDWEST NATIONAL AIR CENTER AIRPORT",
    "state": "MO",
    "latitude": 39.332,
    "longitude": -94.31
  },
  {
    "id": "KREG",
    "name": "LOUISIANA REGIONAL AIRPORT",
    "state": "LA",
    "latitude": 30.173,
    "longitude": -90.941
  },
  {
    "id": "KPRS",
    "name": "PRESIDIO LELY INTERNATIONAL AIRPORT",
    "state": "TX",
    "latitude": 29.634,
    "longitude": -104.361
  },
  {
    "id": "KSYN",
    "name": "STANTON AIRFIELD",
    "state": "MN",
    "latitude": 44.476,
    "longitude": -93.016
  },
  {
    "id": "KBWP",
    "name": "HARRY STERN AIRPORT",
    "state": "ND",
    "latitude": 46.244,
    "longitude": -96.607
  },
  {
    "id": "KUKL",
    "name": "COFFEY CO",
    "state": "KS",
    "latitude": 38.302,
    "longitude": -95.725
  },
  {
    "id": "KLYV",
    "name": "QUENTIN AANENSON FIELD AIRPORT",
    "state": "MN",
    "latitude": 43.621,
    "longitude": -96.216
  },
  {
    "id": "KCFS",
    "name": "TUSCOLA AREA AIRPORT",
    "state": "MI",
    "latitude": 43.459,
    "longitude": -83.446
  },
  {
    "id": "KRAS",
    "name": "MUSTANG BEACH AIRPORT",
    "state": "TX",
    "latitude": 27.812,
    "longitude": -97.089
  },
  {
    "id": "KEYW",
    "name": "KEY WEST INTERNATIONAL AIRPORT",
    "state": "FL",
    "latitude": 24.557,
    "longitude": -81.755
  },
  {
    "id": "KISM",
    "name": "KISSIMMEE GATEWAY AIRPORT",
    "state": "FL",
    "latitude": 28.29,
    "longitude": -81.437
  },
  {
    "id": "KBKV",
    "name": "HERNANDO COUNTY AIRPORT",
    "state": "FL",
    "latitude": 28.474,
    "longitude": -82.454
  },
  {
    "id": "KNQX",
    "name": "KEY WEST NAS",
    "state": "FL",
    "latitude": 24.583,
    "longitude": -81.683
  },
  {
    "id": "KMTH",
    "name": "THE FL KEYS MARATHON ARPT",
    "state": "FL",
    "latitude": 24.726,
    "longitude": -81.048
  },
  {
    "id": "KMIA",
    "name": "MIAMI INTERNATIONAL AIRPORT",
    "state": "FL",
    "latitude": 25.788,
    "longitude": -80.317
  },
  {
    "id": "KVDF",
    "name": "VANDENBERG AIRPORT",
    "state": "FL",
    "latitude": 28.014,
    "longitude": -82.345
  },
  {
    "id": "KBCT",
    "name": "BOCA RATON AIRPORT",
    "state": "FL",
    "latitude": 26.378,
    "longitude": -80.108
  },
  {
    "id": "KOPF",
    "name": "OPA LOCKA AIRPORT",
    "state": "FL",
    "latitude": 25.91,
    "longitude": -80.283
  },
  {
    "id": "KHST",
    "name": "HOMESTEAD AFB AIRPORT",
    "state": "FL",
    "latitude": 25.483,
    "longitude": -80.383
  },
  {
    "id": "KTMB",
    "name": "KENDALL-TAMIAMI EXEC ARPT",
    "state": "FL",
    "latitude": 25.642,
    "longitude": -80.435
  },
  {
    "id": "KPBI",
    "name": "PALM BEACH INTERNATIONAL AIRPORT",
    "state": "FL",
    "latitude": 26.685,
    "longitude": -80.099
  },
  {
    "id": "K3A1",
    "name": "FOLSOM FIELD AP",
    "state": "AL",
    "latitude": 34.269,
    "longitude": -86.858
  },
  {
    "id": "KACQ",
    "name": "WASECA MUNICIPAL AIRPORT",
    "state": "MN",
    "latitude": 44.074,
    "longitude": -93.553
  },
  {
    "id": "KGDB",
    "name": "GRANITE FALLS MUNI ARPT/LENZEN-ROE MEMORIAL FIELD",
    "state": "MN",
    "latitude": 44.753,
    "longitude": -95.556
  },
  {
    "id": "KPGD",
    "name": "CHARLOTTE COUNTY AIRPORT",
    "state": "FL",
    "latitude": 26.918,
    "longitude": -81.994
  },
  {
    "id": "KHWO",
    "name": "NORTH PERRY AIRPORT",
    "state": "FL",
    "latitude": 26.0,
    "longitude": -80.241
  },
  {
    "id": "KAPF",
    "name": "NAPLES MUNICIPAL AIRPORT",
    "state": "FL",
    "latitude": 26.155,
    "longitude": -81.775
  },
  {
    "id": "KFXE",
    "name": "FT LAUDER EXECUTIVE ARPT",
    "state": "FL",
    "latitude": 26.199,
    "longitude": -80.178
  },
  {
    "id": "KMLB",
    "name": "MELBOURNE INTL AP",
    "state": "FL",
    "latitude": 28.1,
    "longitude": -80.636
  },
  {
    "id": "KGAO",
    "name": "SOUTH LAFOURCHE AIRPORT",
    "state": "LA",
    "latitude": 29.445,
    "longitude": -90.261
  },
  {
    "id": "KJDD",
    "name": "WOOD COUNTY AIRPORT MINEOLA",
    "state": "TX",
    "latitude": 32.742,
    "longitude": -95.496
  },
  {
    "id": "KADH",
    "name": "ADA MUNICIPAL AIRPORT",
    "state": "OK",
    "latitude": 34.804,
    "longitude": -96.671
  },
  {
    "id": "KTIX",
    "name": "SPACE COAST REGIONAL AIRPORT",
    "state": "FL",
    "latitude": 28.517,
    "longitude": -80.8
  },
  {
    "id": "KPMP",
    "name": "POMPANO BEACH AIRPARK ARPT",
    "state": "FL",
    "latitude": 26.246,
    "longitude": -80.111
  },
  {
    "id": "KMCO",
    "name": "ORLANDO INTERNATIONAL AIRPORT",
    "state": "FL",
    "latitude": 28.418,
    "longitude": -81.324
  },
  {
    "id": "KAVK",
    "name": "ALVA REGIONAL AIRPORT",
    "state": "OK",
    "latitude": 36.773,
    "longitude": -98.67
  },
  {
    "id": "KORL",
    "name": "EXECUTIVE AIRPORT",
    "state": "FL",
    "latitude": 28.547,
    "longitude": -81.335
  },
  {
    "id": "KAWM",
    "name": "WEST MEMPHIS MUNICIPAL APT",
    "state": "AR",
    "latitude": 35.14,
    "longitude": -90.236
  },
  {
    "id": "KOCF",
    "name": "OCALA INTERNATIONAL AIRPORT-JIM TAYLOR FIELD",
    "state": "FL",
    "latitude": 29.167,
    "longitude": -82.233
  },
  {
    "id": "KSFB",
    "name": "ORLANDO SANFORD AIRPORT",
    "state": "FL",
    "latitude": 28.78,
    "longitude": -81.244
  },
  {
    "id": "KBUU",
    "name": "BURLINGTON MUNICIPAL ARPT",
    "state": "WI",
    "latitude": 42.69,
    "longitude": -88.304
  },
  {
    "id": "KJAX",
    "name": "JACKSONVILLE INTERNATIONAL AIRPORT",
    "state": "FL",
    "latitude": 30.495,
    "longitude": -81.694
  },
  {
    "id": "KCCU",
    "name": "COPPER MOUNTAIN",
    "state": "CO",
    "latitude": 39.467,
    "longitude": -106.15
  },
  {
    "id": "KDQH",
    "name": "DOUGLAS MUNICIPAL AIRPORT",
    "state": "GA",
    "latitude": 31.477,
    "longitude": -82.861
  },
  {
    "id": "KNIP",
    "name": "JACKSONVILLE NAS",
    "state": "FL",
    "latitude": 30.233,
    "longitude": -81.667
  },
  {
    "id": "KNRB",
    "name": "MAYPORT NAF",
    "state": "FL",
    "latitude": 30.4,
    "longitude": -81.417
  },
  {
    "id": "KVQQ",
    "name": "CECIL FIELD AIRPORT",
    "state": "FL",
    "latitude": 30.219,
    "longitude": -81.876
  },
  {
    "id": "KDTS",
    "name": "DESTIN-FT.WALTON BEACH APT",
    "state": "FL",
    "latitude": 30.393,
    "longitude": -86.467
  },
  {
    "id": "KSAV",
    "name": "SAVANNAH/HILTON HEAD INTL AIRPORT",
    "state": "GA",
    "latitude": 32.131,
    "longitude": -81.202
  },
  {
    "id": "KCHK",
    "name": "CHICKASHA MUNICIPAL ARPT",
    "state": "OK",
    "latitude": 35.096,
    "longitude": -97.966
  },
  {
    "id": "KCTZ",
    "name": "SAMPSON COUNTY AIRPORT",
    "state": "NC",
    "latitude": 34.976,
    "longitude": -78.364
  },
  {
    "id": "KDKB",
    "name": "DE KALB TAYLOR MUNI ARPT",
    "state": "IL",
    "latitude": 41.932,
    "longitude": -88.708
  },
  {
    "id": "KDNV",
    "name": "VERMILION COUNTY AIRPORT",
    "state": "IL",
    "latitude": 40.2,
    "longitude": -87.6
  },
  {
    "id": "KDUC",
    "name": "HALLIBURTON FIELD AIRPORT",
    "state": "OK",
    "latitude": 34.471,
    "longitude": -97.951
  },
  {
    "id": "KEXX",
    "name": "DAVIDSON COUNTY AIRPORT",
    "state": "NC",
    "latitude": 35.781,
    "longitude": -80.304
  },
  {
    "id": "KCHS",
    "name": "CHARLESTON AFB/INTERNATIONAL AIRPORT",
    "state": "SC",
    "latitude": 32.899,
    "longitude": -80.041
  },
  {
    "id": "KFDK",
    "name": "FREDERICK MUNICIPAL ARPT",
    "state": "MD",
    "latitude": 39.417,
    "longitude": -77.383
  },
  {
    "id": "KFEP",
    "name": "ALBERTUS AIRPORT",
    "state": "IL",
    "latitude": 42.246,
    "longitude": -89.582
  },
  {
    "id": "KNBC",
    "name": "BEAUFORT MCAS",
    "state": "SC",
    "latitude": 32.483,
    "longitude": -80.717
  },
  {
    "id": "KGBG",
    "name": "GALESBURG MUNICIPAL ARPT",
    "state": "IL",
    "latitude": 40.933,
    "longitude": -90.433
  },
  {
    "id": "KLHW",
    "name": "WRIGHT AAF AIRPORT",
    "state": "GA",
    "latitude": 31.883,
    "longitude": -81.567
  },
  {
    "id": "KGCM",
    "name": "CLAREMORE REGIONAL AIRPORT",
    "state": "OK",
    "latitude": 36.294,
    "longitude": -95.479
  },
  {
    "id": "KGMJ",
    "name": "GROVE MUNICIPAL AIRPORT",
    "state": "OK",
    "latitude": 36.605,
    "longitude": -94.738
  },
  {
    "id": "KGOV",
    "name": "GRAYLING ARMY AIRFIELD",
    "state": "MI",
    "latitude": 44.68,
    "longitude": -84.729
  },
  {
    "id": "KGPM",
    "name": "GRAND PRAIRIE MUNICIPAL AIRPORT",
    "state": "TX",
    "latitude": 32.699,
    "longitude": -97.047
  },
  {
    "id": "KGUY",
    "name": "GUYMON MUNICIPAL AIRPORT",
    "state": "OK",
    "latitude": 36.682,
    "longitude": -101.505
  },
  {
    "id": "KHND",
    "name": "HENDERSON EXECUTIVE ARPT",
    "state": "NV",
    "latitude": 35.976,
    "longitude": -115.133
  },
  {
    "id": "KHNR",
    "name": "HARLAN MUNICIPAL AIRPORT",
    "state": "IA",
    "latitude": 41.584,
    "longitude": -95.339
  },
  {
    "id": "KHTO",
    "name": "EAST HAMPTON AIRPORT",
    "state": "NY",
    "latitude": 40.96,
    "longitude": -72.252
  },
  {
    "id": "KCQB",
    "name": "CHANDLER MUNICIPAL AIRPORT",
    "state": "OK",
    "latitude": 35.724,
    "longitude": -96.82
  },
  {
    "id": "KCPW",
    "name": "WOLF CREEK PASS AWOS-3 AIRPORT",
    "state": "CO",
    "latitude": 37.45,
    "longitude": -106.8
  },
  {
    "id": "KFPR",
    "name": "ST LUCIE COUNTY INTL ARPT",
    "state": "FL",
    "latitude": 27.498,
    "longitude": -80.376
  },
  {
    "id": "KSPG",
    "name": "ALBERT WHITTED AIRPORT",
    "state": "FL",
    "latitude": 27.768,
    "longitude": -82.626
  },
  {
    "id": "KFMY",
    "name": "PAGE FIELD AIRPORT",
    "state": "FL",
    "latitude": 26.585,
    "longitude": -81.861
  },
  {
    "id": "KGNC",
    "name": "GAINES COUNTY AIRPORT",
    "state": "TX",
    "latitude": 32.675,
    "longitude": -102.654
  },
  {
    "id": "KRSW",
    "name": "SW FLORIDA INTN AIRPORT",
    "state": "FL",
    "latitude": 26.538,
    "longitude": -81.757
  },
  {
    "id": "KCNI",
    "name": "CHEROKEE COUNTY AIRPORT",
    "state": "GA",
    "latitude": 34.317,
    "longitude": -84.417
  },
  {
    "id": "KTPA",
    "name": "TAMPA INTERNATIONAL AIRPORT",
    "state": "FL",
    "latitude": 27.963,
    "longitude": -82.54
  },
  {
    "id": "KJXI",
    "name": "FOX STEPHENS FIELD - GILMER MINICIPAL AIRPORT",
    "state": "TX",
    "latitude": 32.699,
    "longitude": -94.949
  },
  {
    "id": "KGYB",
    "name": "GIDDINGS-LEE COUNTY AIRPORT",
    "state": "TX",
    "latitude": 30.169,
    "longitude": -96.98
  },
  {
    "id": "KCFE",
    "name": "BUFFALO MUNICIPAL AIRPORT",
    "state": "MN",
    "latitude": 45.159,
    "longitude": -93.843
  },
  {
    "id": "KSRQ",
    "name": "SARASOTA/BRADENTON INTL AP",
    "state": "FL",
    "latitude": 27.401,
    "longitude": -82.559
  },
  {
    "id": "KPIE",
    "name": "ST PETE-CLWTR INTL AIRPORT",
    "state": "FL",
    "latitude": 27.913,
    "longitude": -82.686
  },
  {
    "id": "KVNC",
    "name": "VENICE MUNICIPAL AIRPORT",
    "state": "FL",
    "latitude": 27.072,
    "longitude": -82.44
  },
  {
    "id": "KLAL",
    "name": "LAKELAND LINDER REGIONAL AIRPORT",
    "state": "FL",
    "latitude": 28.0,
    "longitude": -82.05
  },
  {
    "id": "KCTY",
    "name": "CROSS CITY AIRPORT",
    "state": "FL",
    "latitude": 29.633,
    "longitude": -83.105
  },
  {
    "id": "KSNK",
    "name": "WINSTON FIELD AIRPORT",
    "state": "TX",
    "latitude": 32.693,
    "longitude": -100.951
  },
  {
    "id": "KBOW",
    "name": "BARTOW MUNICIPAL AIRPORT",
    "state": "FL",
    "latitude": 27.95,
    "longitude": -81.783
  },
  {
    "id": "KHJH",
    "name": "HEBRON MUNICIPAL AIRPORT",
    "state": "NE",
    "latitude": 40.149,
    "longitude": -97.587
  },
  {
    "id": "KHYX",
    "name": "SAGNAW CO H.W. BROWNE ARPT",
    "state": "MI",
    "latitude": 43.433,
    "longitude": -83.867
  },
  {
    "id": "KIGQ",
    "name": "LANSING MUNICIPAL AP",
    "state": "IL",
    "latitude": 41.54,
    "longitude": -87.532
  },
  {
    "id": "KIKK",
    "name": "GREATER KANKAKEE AIRPORT",
    "state": "IL",
    "latitude": 41.071,
    "longitude": -87.846
  },
  {
    "id": "KIPJ",
    "name": "LICONTN-LINCOLN CO RGNL AP",
    "state": "NC",
    "latitude": 35.483,
    "longitude": -81.161
  },
  {
    "id": "KJKJ",
    "name": "MOORHEAD MUNICIPAL AIRPORT",
    "state": "MN",
    "latitude": 46.839,
    "longitude": -96.663
  },
  {
    "id": "KAYS",
    "name": "WAYCROSS-WARE CO. AIRPORT",
    "state": "GA",
    "latitude": 31.25,
    "longitude": -82.4
  },
  {
    "id": "KJNX",
    "name": "JOHNSTON COUNTY AIRPORT",
    "state": "NC",
    "latitude": 35.541,
    "longitude": -78.39
  },
  {
    "id": "KJQF",
    "name": "CONCORD REGIONAL AIRPORT",
    "state": "NC",
    "latitude": 35.39,
    "longitude": -80.707
  },
  {
    "id": "KJSV",
    "name": "SALLISAW MUNICIPAL AIRPORT",
    "state": "OK",
    "latitude": 35.438,
    "longitude": -94.803
  },
  {
    "id": "KVDI",
    "name": "VIDALIA REGIONAL AIRPORT",
    "state": "GA",
    "latitude": 32.193,
    "longitude": -82.372
  },
  {
    "id": "KBQK",
    "name": "BRUNSWICK GOLDEN ISLES APT",
    "state": "GA",
    "latitude": 31.259,
    "longitude": -81.466
  },
  {
    "id": "KSSI",
    "name": "MALCOLM MC KINNON AIRPORT",
    "state": "GA",
    "latitude": 31.153,
    "longitude": -81.391
  },
  {
    "id": "KHSA",
    "name": "STENNIS INTERNATIONAL AIRPORT",
    "state": "MS",
    "latitude": 30.368,
    "longitude": -89.455
  },
  {
    "id": "KTLH",
    "name": "TALLAHASSEE REGIONAL AIRPORT",
    "state": "FL",
    "latitude": 30.394,
    "longitude": -84.351
  },
  {
    "id": "KLHZ",
    "name": "FRANKLIN COUNTY AIRPORT",
    "state": "NC",
    "latitude": 36.023,
    "longitude": -78.33
  },
  {
    "id": "KLLJ",
    "name": "CHALLIS AIRPORT",
    "state": "ID",
    "latitude": 44.523,
    "longitude": -114.216
  },
  {
    "id": "KLNC",
    "name": "LANCASTER AIRPORT",
    "state": "TX",
    "latitude": 32.579,
    "longitude": -96.719
  },
  {
    "id": "KMGG",
    "name": "MAPLE LAKE MUNICIPAL ARPT",
    "state": "MN",
    "latitude": 45.236,
    "longitude": -93.986
  },
  {
    "id": "KMGN",
    "name": "HARBOR SPRINGS AIRPORT",
    "state": "MI",
    "latitude": 45.426,
    "longitude": -84.913
  },
  {
    "id": "KMGR",
    "name": "MOULTRIE MUNICIPAL AIRPORT",
    "state": "GA",
    "latitude": 31.083,
    "longitude": -83.8
  },
  {
    "id": "KVUJ",
    "name": "STANLEY COUNTY AIRPORT",
    "state": "NC",
    "latitude": 35.417,
    "longitude": -80.151
  },
  {
    "id": "KVYS",
    "name": "ILLINOIS VALLEY RGNL-WALTER DUNCAN FLD ARPT",
    "state": "IL",
    "latitude": 41.352,
    "longitude": -89.153
  },
  {
    "id": "KWST",
    "name": "WESTERLY STATE AIRPORT",
    "state": "RI",
    "latitude": 41.351,
    "longitude": -71.806
  },
  {
    "id": "KWWR",
    "name": "WEST WOODWARD AIRPORT",
    "state": "OK",
    "latitude": 36.437,
    "longitude": -99.521
  },
  {
    "id": "KDNN",
    "name": "DALTON MUNICIPAL AIRPORT",
    "state": "GA",
    "latitude": 34.722,
    "longitude": -84.869
  },
  {
    "id": "KMNH",
    "name": "MONUMENT HILL AWOS-3 ARPT",
    "state": "CO",
    "latitude": 39.217,
    "longitude": -104.633
  },
  {
    "id": "KVPC",
    "name": "CARTERSVILLE AIRPORT",
    "state": "GA",
    "latitude": 34.116,
    "longitude": -84.851
  },
  {
    "id": "KMQB",
    "name": "MACOMB MUNICIPAL AIRPORT",
    "state": "IL",
    "latitude": 40.52,
    "longitude": -90.652
  },
  {
    "id": "KNAK",
    "name": "U.S. NAVAL ACADEMY",
    "state": "MD",
    "latitude": 38.991,
    "longitude": -76.489
  },
  {
    "id": "KT65",
    "name": "MID VALLEY AIRPORT",
    "state": "TX",
    "latitude": 26.178,
    "longitude": -97.973
  },
  {
    "id": "KABY",
    "name": "SW GEORGIA REGIONAL ARPT",
    "state": "GA",
    "latitude": 31.536,
    "longitude": -84.196
  },
  {
    "id": "KOKM",
    "name": "OKMULGEE MUNICIPAL AIRPORT",
    "state": "OK",
    "latitude": 35.668,
    "longitude": -95.949
  },
  {
    "id": "KOLV",
    "name": "OLIVE BRANCH AIRPORT",
    "state": "MS",
    "latitude": 34.979,
    "longitude": -89.787
  },
  {
    "id": "KVLD",
    "name": "VALDOSTA REGIONAL AIRPORT",
    "state": "GA",
    "latitude": 30.776,
    "longitude": -83.274
  },
  {
    "id": "KOMH",
    "name": "ORANGE COUNTY AIRPORT",
    "state": "VA",
    "latitude": 38.247,
    "longitude": -78.046
  },
  {
    "id": "KOVL",
    "name": "OLIVIA REGIONAL AIRPORT",
    "state": "MN",
    "latitude": 44.779,
    "longitude": -95.033
  },
  {
    "id": "KPEQ",
    "name": "PECOS MUNICIPAL AIRPORT",
    "state": "TX",
    "latitude": 31.383,
    "longitude": -103.511
  },
  {
    "id": "KMCN",
    "name": "MIDDLE GEORGIA REGIONAL AIRPORT",
    "state": "GA",
    "latitude": 32.689,
    "longitude": -83.653
  },
  {
    "id": "KPNT",
    "name": "PONTIAC MUNICIPAL AIRPORT",
    "state": "IL",
    "latitude": 40.924,
    "longitude": -88.624
  },
  {
    "id": "KPRG",
    "name": "EDGAR COUNTY AIRPORT",
    "state": "IL",
    "latitude": 39.7,
    "longitude": -87.669
  },
  {
    "id": "KPVJ",
    "name": "PAULS VALLEY MUNI AIRPORT",
    "state": "OK",
    "latitude": 34.711,
    "longitude": -97.223
  },
  {
    "id": "KPVW",
    "name": "HALE COUNTY AIRPORT",
    "state": "TX",
    "latitude": 34.167,
    "longitude": -101.717
  },
  {
    "id": "KWRB",
    "name": "ROBINS AFB AIRPORT",
    "state": "GA",
    "latitude": 32.633,
    "longitude": -83.6
  },
  {
    "id": "KCCO",
    "name": "NEWNAN COWETA COUNTY ARPT",
    "state": "GA",
    "latitude": 33.312,
    "longitude": -84.77
  },
  {
    "id": "KRHP",
    "name": "ANDREWS-MURPHY AIRPORT",
    "state": "NC",
    "latitude": 35.195,
    "longitude": -83.865
  },
  {
    "id": "KRKR",
    "name": "ROBERT S KERR AIRPORT",
    "state": "OK",
    "latitude": 35.021,
    "longitude": -94.621
  },
  {
    "id": "KRNH",
    "name": "NEW RICHMOND MUNICIPAL APT",
    "state": "WI",
    "latitude": 45.15,
    "longitude": -92.533
  },
  {
    "id": "KAGS",
    "name": "AUGUSTA REGIONAL AT BUSH FIELD AP",
    "state": "GA",
    "latitude": 33.365,
    "longitude": -81.964
  },
  {
    "id": "KDNL",
    "name": "DANIEL FIELD AIRPORT",
    "state": "GA",
    "latitude": 33.467,
    "longitude": -82.038
  },
  {
    "id": "KRPJ",
    "name": "ROCHELLE MUNI ARPT-KORITZ FIELD AIRPORT",
    "state": "IL",
    "latitude": 41.893,
    "longitude": -89.078
  },
  {
    "id": "KRZN",
    "name": "BURNETT COUNTY AIRPORT",
    "state": "WI",
    "latitude": 45.823,
    "longitude": -92.373
  },
  {
    "id": "KGVL",
    "name": "LEE GILMER MEMORIAL ARPT",
    "state": "GA",
    "latitude": 34.272,
    "longitude": -83.83
  },
  {
    "id": "KSJX",
    "name": "BEAVER ISLAND AIRPORT",
    "state": "MI",
    "latitude": 45.689,
    "longitude": -85.566
  },
  {
    "id": "KSNL",
    "name": "SHAWNEE MUNICIPAL AIRPORT",
    "state": "OK",
    "latitude": 35.357,
    "longitude": -96.943
  },
  {
    "id": "KSRC",
    "name": "SEARCY MUNICIPAL AIRPORT",
    "state": "AR",
    "latitude": 35.212,
    "longitude": -91.737
  },
  {
    "id": "KSUA",
    "name": "WITHAM FIELD AIRPORT",
    "state": "FL",
    "latitude": 27.182,
    "longitude": -80.221
  },
  {
    "id": "KATL",
    "name": "HARTSFIELD-JACKSON ATLANTA INTL AP",
    "state": "GA",
    "latitude": 33.63,
    "longitude": -84.442
  },
  {
    "id": "KSUT",
    "name": "BRUNSWICK COUNTY AIRPORT",
    "state": "NC",
    "latitude": 33.929,
    "longitude": -78.075
  },
  {
    "id": "KSWW",
    "name": "AVENGER FIELD AIRPORT",
    "state": "TX",
    "latitude": 32.473,
    "longitude": -100.466
  },
  {
    "id": "KTDF",
    "name": "PERSON COUNTY AIRPORT",
    "state": "NC",
    "latitude": 36.285,
    "longitude": -78.984
  },
  {
    "id": "KTIP",
    "name": "RANTOUL NATL AVN CNTR-F ELLIOTT FIELD AIRPORT",
    "state": "IL",
    "latitude": 40.293,
    "longitude": -88.142
  },
  {
    "id": "KFTY",
    "name": "FULTON CO-BROWN FLD ARPT",
    "state": "GA",
    "latitude": 33.778,
    "longitude": -84.525
  },
  {
    "id": "KPDK",
    "name": "DEKALB-PEACHTREE AIRPORT",
    "state": "GA",
    "latitude": 33.878,
    "longitude": -84.298
  },
  {
    "id": "KFFC",
    "name": "PCHTRE CTY-FALCON FLD ARPT",
    "state": "GA",
    "latitude": 33.354,
    "longitude": -84.569
  },
  {
    "id": "KTNB",
    "name": "BOONE",
    "state": "NC",
    "latitude": 36.2,
    "longitude": -81.65
  },
  {
    "id": "KTQH",
    "name": "TAHLEQUAH MUNICIPAL ARPT",
    "state": "OK",
    "latitude": 35.929,
    "longitude": -95.004
  },
  {
    "id": "KAAF",
    "name": "APALACHICOLA MUNI AIRPORT",
    "state": "FL",
    "latitude": 29.727,
    "longitude": -85.025
  },
  {
    "id": "KTTA",
    "name": "SANFORD-LEE COUNTY RGNL ARPT",
    "state": "NC",
    "latitude": 35.582,
    "longitude": -79.101
  },
  {
    "id": "KUVA",
    "name": "GARNER FIELD AIRPORT",
    "state": "TX",
    "latitude": 29.211,
    "longitude": -99.744
  },
  {
    "id": "KMYP",
    "name": "MONARCH PASS AWOS-3 ARPT",
    "state": "CO",
    "latitude": 38.483,
    "longitude": -106.317
  },
  {
    "id": "KORS",
    "name": "ORCAS ISLAND AIRPORT",
    "state": "WA",
    "latitude": 48.708,
    "longitude": -122.911
  },
  {
    "id": "KPKV",
    "name": "CALHOUN COUNTY AIRPORT",
    "state": "TX",
    "latitude": 28.654,
    "longitude": -96.681
  },
  {
    "id": "KVPS",
    "name": "EGLIN AFB AIRPORT",
    "state": "FL",
    "latitude": 30.483,
    "longitude": -86.517
  },
  {
    "id": "KTIF",
    "name": "THOMAS COUNTY AIRPORT",
    "state": "NE",
    "latitude": 41.964,
    "longitude": -100.569
  },
  {
    "id": "KSGJ",
    "name": "ST AUGUSTINE AIRPORT",
    "state": "FL",
    "latitude": 29.959,
    "longitude": -81.34
  },
  {
    "id": "KLEE",
    "name": "LEESBURG REGIONAL AIRPORT",
    "state": "FL",
    "latitude": 28.821,
    "longitude": -81.81
  },
  {
    "id": "KDUX",
    "name": "MOORE COUNTY AIRPORT",
    "state": "TX",
    "latitude": 35.858,
    "longitude": -102.013
  },
  {
    "id": "KCEW",
    "name": "BOB SIKES AIRPORT",
    "state": "FL",
    "latitude": 30.777,
    "longitude": -86.519
  },
  {
    "id": "KXNO",
    "name": "NORTH AF AUX",
    "state": "SC",
    "latitude": 33.615,
    "longitude": -81.084
  },
  {
    "id": "KDBN",
    "name": "W H `BUD` BARRON AIRPORT",
    "state": "GA",
    "latitude": 32.564,
    "longitude": -82.985
  },
  {
    "id": "KCGE",
    "name": "CAMBRIDGE DORCHESTER AIRPORT",
    "state": "MD",
    "latitude": 38.533,
    "longitude": -76.033
  },
  {
    "id": "KSXS",
    "name": "SHELL AHP",
    "state": "AL",
    "latitude": 31.363,
    "longitude": -85.849
  },
  {
    "id": "KDWX",
    "name": "DIXON AIRPORT",
    "state": "WY",
    "latitude": 41.037,
    "longitude": -107.493
  },
  {
    "id": "KPNS",
    "name": "PENSACOLA REGIONAL AIRPORT",
    "state": "FL",
    "latitude": 30.476,
    "longitude": -87.186
  },
  {
    "id": "KNPA",
    "name": "PENSACOLA NAS",
    "state": "FL",
    "latitude": 30.35,
    "longitude": -87.317
  },
  {
    "id": "KNSE",
    "name": "WHITING FIELD NAVAL AIR STATION NORTH",
    "state": "FL",
    "latitude": 30.717,
    "longitude": -87.017
  },
  {
    "id": "KMOB",
    "name": "MOBILE REGIONAL AIRPORT",
    "state": "AL",
    "latitude": 30.688,
    "longitude": -88.246
  },
  {
    "id": "KMNZ",
    "name": "HAMILTON MUNICIPAL AIRPORT",
    "state": "TX",
    "latitude": 31.666,
    "longitude": -98.149
  },
  {
    "id": "KBFM",
    "name": "MOBILE DOWNTOWN AIRPORT",
    "state": "AL",
    "latitude": 30.615,
    "longitude": -88.063
  },
  {
    "id": "KHEY",
    "name": "HANCHEY ARMY HELIPORT (FORT RUCKER)",
    "state": "AL",
    "latitude": 31.35,
    "longitude": -85.667
  },
  {
    "id": "KLOR",
    "name": "LOWE ARMY HELIPORT (FORT RUCKER)",
    "state": "AL",
    "latitude": 31.356,
    "longitude": -85.751
  },
  {
    "id": "KLCG",
    "name": "WAYNE MUNICIPAL AIRPORT",
    "state": "NE",
    "latitude": 42.242,
    "longitude": -96.983
  },
  {
    "id": "KRCZ",
    "name": "RICHMOND COUNTY AIRPORT",
    "state": "NC",
    "latitude": 34.891,
    "longitude": -79.759
  },